     2.11           OBSERVATION DATA    M (MIXED)           RINEX VERSION / TYPE
GPP.DLL V3.02       ESNG-DPTS           12 - OCT - 18 01:59 PGM / RUN BY / DATE
Onboard RINEX convertor RC024                               COMMENT
ENSG                                                        MARKER NAME
                                                            MARKER NUMBER
JBeilin             ESNG-DPTS                               OBSERVER / AGENCY
201518010           ProFlex800          S845Kl27            REC # / TYPE / VERS
                    TRM55971.00                             ANT # / TYPE
  4253804.4427  -224255.7080  4731475.5125                  APPROX POSITION XYZ
        0.0000       -0.0000       -0.0000                  ANTENNA: DELTA H/E/N
     1     1                                                WAVELENGTH FACT L1/2
    14    L1    C1    D1    S1    L2    P2    D2    S2    P1# / TYPES OF OBSERV
          C2    L5    C5    D5    S5                        # / TYPES OF OBSERV
0.25 cycles added to GPS L1P carrier phase                  COMMENT
0.25 cycles subtracted from GLONASS L2C carrier phase       COMMENT
    15.000                                                  INTERVAL
  2018    10    12     1     0   15.0000000     GPS         TIME OF FIRST OBS
  2018    10    12     1    59   45.0000000     GPS         TIME OF LAST OBS
    17                                                      LEAP SECONDS
    30                                                      # OF SATELLITES
   G02   239   239   239   239   239   239   239   239   239PRN / # OF OBS
           0     0     0     0     0                        PRN / # OF OBS
   G06   239   239   239   239   239   239   239   239   239PRN / # OF OBS
           0     0     0     0     0                        PRN / # OF OBS
   G12   239   239   239   239   239   239   239   239   239PRN / # OF OBS
           0     0     0     0     0                        PRN / # OF OBS
   G14   239   239   239   239   239   239   239   239   239PRN / # OF OBS
           0     0     0     0     0                        PRN / # OF OBS
   G19    49    49    49    49    49    49    49    49    48PRN / # OF OBS
           0     0     0     0     0                        PRN / # OF OBS
   G24   180   180   180   180   164   164   164   164   164PRN / # OF OBS
           0     0     0     0     0                        PRN / # OF OBS
   G25   239   239   239   239   239   239   239   239   239PRN / # OF OBS
           0     0     0     0     0                        PRN / # OF OBS
   G29   239   239   239   239   239   239   239   239   239PRN / # OF OBS
           0     0     0     0     0                        PRN / # OF OBS
   G31   239   239   239   239   239   239   239   239   239PRN / # OF OBS
           0     0     0     0     0                        PRN / # OF OBS
   G32   239   239   239   239   239   239   239   239   239PRN / # OF OBS
           0     0     0     0     0                        PRN / # OF OBS
   R04    31    31    31    31    30     0    30    30     0PRN / # OF OBS
          30     0     0     0     0                        PRN / # OF OBS
   R05   235   235   235   235   230     0   230   230     0PRN / # OF OBS
         230     0     0     0     0                        PRN / # OF OBS
   R06   239   239   239   239     0     0     0     0     0PRN / # OF OBS
           0     0     0     0     0                        PRN / # OF OBS
   R07    69    69    69    69    66     0    66    66     0PRN / # OF OBS
          66     0     0     0     0                        PRN / # OF OBS
   R13    64    64    64    64    48     0    48    48     0PRN / # OF OBS
          48     0     0     0     0                        PRN / # OF OBS
   R14   239   239   239   239   239     0   239   239     0PRN / # OF OBS
         239     0     0     0     0                        PRN / # OF OBS
   R15   239   239   239   239   239     0   239   239     0PRN / # OF OBS
         239     0     0     0     0                        PRN / # OF OBS
   R16   126   126   126   126   125     0   125   125     0PRN / # OF OBS
         125     0     0     0     0                        PRN / # OF OBS
   R17   239   239   239   239   239     0   239   239     0PRN / # OF OBS
         239     0     0     0     0                        PRN / # OF OBS
   R18    81    81    81    81    81     0    81    81     0PRN / # OF OBS
          81     0     0     0     0                        PRN / # OF OBS
   R23   239   239   239   239   231     0   231   231     0PRN / # OF OBS
         231     0     0     0     0                        PRN / # OF OBS
   R24   239   239   239   239   239     0   239   239     0PRN / # OF OBS
         239     0     0     0     0                        PRN / # OF OBS
   S23   239   239   239   239     0     0     0     0     0PRN / # OF OBS
           0     0     0     0     0                        PRN / # OF OBS
   S36   239   239   239   239     0     0     0     0     0PRN / # OF OBS
           0     0     0     0     0                        PRN / # OF OBS
   E07     2     2     2     2     0     0     0     0     0PRN / # OF OBS
           0     2     2     2     2                        PRN / # OF OBS
   E18   128   128   128   128     0     0     0     0     0PRN / # OF OBS
           0   128   128   128   128                        PRN / # OF OBS
   E19   239   239   239   239     0     0     0     0     0PRN / # OF OBS
           0   239   239   239   239                        PRN / # OF OBS
   E21   239   239   239   239     0     0     0     0     0PRN / # OF OBS
           0   239   239   239   239                        PRN / # OF OBS
   E27   239   239   239   239     0     0     0     0     0PRN / # OF OBS
           0   239   239   239   239                        PRN / # OF OBS
   E30   239   239   239   239     0     0     0     0     0PRN / # OF OBS
           0   238   238   238   238                        PRN / # OF OBS
                                                            END OF HEADER
 18 10 12  1  0 15.0000000  0 27G02G06G12G14G19G24G25G29G31G32S23S36
                                R04R05R06R13R14R15R17R23R24E07E18E19
                                E21E27E30
 125339261.645 6  23851268.160        1691.514          44.000    97666958.00443
  23851263.480        1318.052          28.000    23851267.320

 125727551.438 6  23925155.240         -52.452          43.000    97969532.50042
  23925155.740         -40.869          25.000    23925155.100

 108822918.039 8  20708308.540       -1883.590          52.000    84797085.80946
  20708305.600       -1467.736          41.000    20708308.220

 117719602.902 7  22401293.720        1540.278          47.000    91729553.31244
  22401290.940        1200.215          31.000    22401293.020

 129568803.457 6  24656120.500       -3638.074          42.000   100962702.05142
  24656116.120       -2834.860          24.000    24656119.200

 119797450.090 7  22796692.700       -3090.173          48.000    93348667.73844
  22796693.720       -2407.922          35.000    22796692.360

 107080327.594 8  20376704.780         665.686          52.000    83439221.21546
  20376704.840         518.717          44.000    20376703.780

 118410589.367 7  22532783.020        3470.537          48.000    92267986.80144
  22532781.060        2704.315          31.000    22532782.800

 125041815.641 6  23794667.220        3207.995          43.000    97435179.89842
  23794664.300        2499.743          24.000    23794667.080

 113814509.695 8  21658180.620        -297.921          51.000    88686623.71945
  21658180.740        -232.148          39.000    21658180.540

 205064248.617 6  39022427.820           3.175          45.000


 200999082.172 7  38248679.860            .463          46.000


 126304371.781 6  23586449.660       -4197.182          41.000    98236730.844 5
                     -3264.483          38.000                    23586444.920

 116695276.852 7  21830257.400       -2177.300          48.000    90762967.750 6
                     -1693.447          44.000                    21830251.880

 121805550.352 5  22826307.420        1681.982          39.000


 122431883.879 6  22927555.020       -3217.712          41.000    95224798.391 5
                     -2502.653          38.000                    22927550.900

 105119332.672 8  19720114.720       -1012.284          54.000    81759485.668 8
                      -787.321          51.000                    19720109.820

 106573699.461 7  19943808.300        1567.711          50.000    82890658.043 6
                      1219.329          42.000                    19943804.560

 118351185.160 7  22116749.720        4279.415          46.000    92050941.648 6
                      3328.416          42.000                    22116744.220

 114551840.508 7  21414251.020       -2416.210          50.000    89095870.781 6
                     -1879.275          42.000                    21414247.220

 107905473.566 7  20178865.300        1391.309          46.000    83926481.898 5
                      1082.114          38.000                    20178858.980

 148953923.973 5  28344990.660       -3075.672          37.000

 111231823.555 5  28344999.440       -2296.785          37.000
  98670965.867 6  18776459.860       -4792.066          44.000

  73682864.754 6  18776471.280       -3578.500          44.000
 136860914.594 5  26043764.880        -113.700          39.000

 102201330.617 5  26043771.180         -84.929          39.000
 136273825.707 6  25932046.200        2097.628          44.000

 101762924.168 6  25932053.440        1566.394          45.000
 121695161.496 7  23157817.560         147.272          49.000

  90876258.707 8  23157824.680         109.976          51.000
 124102054.504 7  23615836.140       -1907.646          48.000

  92673612.746 7  23615842.460       -1424.544          46.000
 18 10 12  1  0 30.0000000  0 27G02G06G12G14G19G24G25G29G31G32S23S36
                                R04R05R06R13R14R15R17R23R24E07E18E19
                                E21E27E30
 125313934.059 6  23846448.480        1685.503          45.000    97647222.27043
  23846443.800        1313.370          29.000    23846447.620

 125728411.012 6  23925318.820         -62.062          43.000    97970202.30542
  23925319.320         -48.365          25.000    23925318.660

 108851212.320 8  20713692.760       -1888.895          52.000    84819133.30146
  20713689.820       -1471.869          41.000    20713692.440

 117696563.785 7  22396909.540        1531.689          47.000    91711600.75044
  22396906.740        1193.528          31.000    22396908.820

 129623402.375 6  24666510.320       -3641.736          42.000   101005246.65242
  24666505.940       -2837.723          24.000    24666509.040

 119843831.941 7  22805518.880       -3093.944          48.000    93384809.40645
  22805519.900       -2410.870          36.000    22805518.540

 107070394.484 8  20374814.560         658.820          52.000    83431481.13346
  20374814.640         513.364          44.000    20374813.560

 118358566.500 7  22522883.380        3465.931          49.000    92227449.50844
  22522881.420        2700.723          31.000    22522883.160

 124993709.438 6  23785512.900        3206.236          44.000    97397694.56642
  23785510.000        2498.361          25.000    23785512.780

 113819055.391 8  21659045.640        -308.096          51.000    88690165.80945
  21659045.760        -240.074          39.000    21659045.560

 205064200.730 7  39022418.640           3.139          46.000


 200999078.594 7  38248679.660           -.263          46.000


 126367340.543 6  23598208.640       -4198.516          41.000    98285706.527 5
                     -3265.520          38.000                    23598203.900

 116728020.484 7  21836382.780       -2188.427          48.000    90788435.020 6
                     -1702.110          45.000                    21836377.260

 121780411.020 5  22821596.080        1669.960          40.000


 122480170.031 6  22936597.480       -3220.370          42.000    95262354.273 5
                     -2504.730          38.000                    22936593.360

 105134566.277 8  19722972.520       -1018.700          54.000    81771334.023 8
                      -792.326          51.000                    19722967.600

 106550224.867 7  19939415.340        1562.306          50.000    82872400.035 6
                      1215.107          42.000                    19939411.620

 118287030.172 7  22104760.820        4274.670          47.000    92001043.340 6
                      3324.752          43.000                    22104755.300

 114588170.957 7  21421042.620       -2427.728          49.000    89124127.789 6
                     -1888.257          41.000                    21421038.820

 107884706.777 7  20174981.800        1377.592          46.000    83910329.953 5
                      1071.443          38.000                    20174975.500

 149000049.348 5  28353767.980       -3074.290          36.000

 111266267.848 5  28353776.900       -2295.712          38.000
  98742970.918 6  18790161.960       -4808.494          43.000

  73736634.750 6  18790173.380       -3590.763          44.000
 136862676.094 5  26044100.080        -121.039          40.000

 102202646.023 5  26044106.360         -90.368          39.000
 136242371.820 6  25926060.700        2096.229          45.000

 101739435.879 6  25926067.940        1565.363          44.000
 121692977.125 7  23157401.900         144.061          49.000

  90874627.523 8  23157409.000         107.572          51.000
 124130684.473 7  23621284.280       -1909.595          48.000

  92694992.262 7  23621290.620       -1425.993          46.000
 18 10 12  1  0 45.0000000  0 26G02G06G12G14G19G24G25G29G31G32S23S36
                                R04R05R06R13R14R15R17R23R24E18E19E21
                                E27E30
 125288698.816 7  23841646.360        1679.377          46.000    97627558.43043
  23841641.700        1308.611          29.000    23841645.520

 125729414.867 6  23925509.840         -71.599          43.000    97970984.52042
  23925510.340         -55.791          24.000    23925509.680

 108879586.254 8  20719092.140       -1894.139          52.000    84841242.86346
  20719089.200       -1475.954          41.000    20719091.820

 117673654.070 7  22392549.960        1523.109          47.000    91693749.02744
  22392547.180        1186.836          31.000    22392549.240

 129678056.008 6  24676910.560       -3645.304          41.000   101047833.91042
  24676906.180       -2840.498          23.000    24676909.260

 119890270.258 7  22814355.800       -3097.673          47.000    93420995.10244
  22814356.840       -2413.768          35.000    22814355.460

 107060564.371 8  20372943.960         652.006          53.000    83423821.30546
  20372944.040         508.054          44.000    20372942.960

 118306613.027 7  22512996.960        3461.339          49.000    92186966.28144
  22512995.000        2697.146          31.000    22512996.740

 124945629.703 6  23776363.640        3204.526          45.000    97360229.83642
  23776360.720        2497.030          25.000    23776363.500

 113823754.656 8  21659939.900        -318.295          51.000    88693827.57045
  21659940.000        -248.026          39.000    21659939.800

 205064153.199 7  39022409.600           3.259          46.000


 200999083.883 7  38248681.140           -.485          46.000


 126430329.488 6  23609971.380       -4199.863          41.000    98334697.910 5
                     -3266.540          38.000                    23609966.660

 116760930.676 7  21842539.320       -2199.466          48.000    90814031.848 6
                     -1710.700          45.000                    21842533.800

 121755453.117 5  22816919.180        1657.985          40.000


 122528495.148 5  22945647.240       -3222.857          40.000    95299940.477 5
                     -2506.672          37.000                    22945643.120

 105149897.262 8  19725848.560       -1025.217          54.000    81783258.109 8
                      -797.401          51.000                    19725843.660

 106526831.520 7  19935037.600        1556.925          50.000    82854205.215 6
                      1210.920          42.000                    19935033.860

 118222946.656 7  22092785.280        4269.939          47.000    91951200.605 6
                      3321.048          43.000                    22092779.760

 114624674.586 7  21427866.580       -2439.265          49.000    89152519.488 6
                     -1897.211          41.000                    21427862.800

 107864146.168 7  20171136.860        1363.948          46.000    83894338.387 5
                      1060.868          38.000                    20171130.560

  98815222.094 6  18803910.860       -4824.786          42.000

  73790588.547 6  18803922.240       -3602.941          43.000
 136864548.410 5  26044456.360        -128.444          40.000

 102204044.188 5  26044462.660         -95.922          39.000
 136210939.047 6  25920079.280        2094.881          45.000

 101715963.359 6  25920086.440        1564.342          45.000
 121690841.293 7  23156995.460         140.880          49.000

  90873032.582 8  23157002.560         105.191          51.000
 124159343.699 7  23626737.940       -1911.487          48.000

  92716393.613 7  23626744.420       -1427.419          46.000
 18 10 12  1  1  0.0000000  0 26G02G06G12G14G19G24G25G29G31G32S23S36
                                R04R05R06R13R14R15R17R23R24E18E19E21
                                E27E30
 125263554.586 6  23836861.580        1673.144          45.000    97607965.54743
  23836856.920        1303.753          30.000    23836860.720

 125730561.441 6  23925728.020         -81.297          43.000    97971877.94942
  23925728.520         -63.339          24.000    23925727.880

 108908038.047 8  20724506.340       -1899.478          52.000    84863413.08646
  20724503.400       -1480.114          41.000    20724506.020

 117650872.410 7  22388214.760        1514.376          47.000    91675997.07844
  22388211.960        1180.026          31.000    22388214.040

 129732762.523 6  24687320.860       -3648.944          41.000   101090462.34842
  24687316.460       -2843.325          21.000    24687319.560

 119936763.629 7  22823203.200       -3101.497          48.000    93457223.68045
  22823204.240       -2416.757          36.000    22823202.860

 107050835.668 8  20371092.640         645.113          53.000    83416240.49646
  20371092.720         502.683          44.000    20371091.640

 118254727.742 7  22503123.520        3456.650          49.000    92146536.19544
  22503121.540        2693.491          31.000    22503123.300

 124897574.988 6  23767219.120        3202.682          45.000    97322784.59442
  23767216.200        2495.588          25.000    23767218.980

 113828605.883 7  21660863.060        -328.585          50.000    88697607.75045
  21660863.160        -256.046          39.000    21660862.960

 205064104.426 7  39022400.280           3.181          46.000


 200999091.164 7  38248682.720           -.693          46.000


 126493336.012 6  23621737.420       -4201.148          41.000    98383703.016 5
                     -3267.611          38.000                    23621732.700

 116794005.551 7  21848726.660       -2210.565          48.000    90839756.730 6
                     -1719.335          45.000                    21848721.160

 121730675.539 5  22812276.000        1645.774          39.000


 122576857.137 5  22954703.900       -3225.506          40.000    95337555.320 5
                     -2508.767          36.000                    22954699.800

 105165323.945 8  19728742.580       -1031.783          53.000    81795256.648 8
                      -802.512          51.000                    19728737.660

 106503518.605 7  19930674.900        1551.399          50.000    82836072.941 6
                      1206.646          42.000                    19930671.180

 118158933.488 7  22080822.860        4265.064          47.000    91901412.594 6
                      3317.276          42.000                    22080817.360

 114661349.211 7  21434722.500       -2450.784          48.000    89181044.191 6
                     -1906.187          42.000                    21434718.740

 107843790.277 6  20167330.180        1350.109          45.000    83878506.051 5
                      1050.068          38.000                    20167323.900

  98887716.785 6  18817706.060       -4841.186          42.000

  73844724.203 6  18817717.360       -3615.168          42.000
 136866529.965 5  26044833.460        -135.892          40.000

 102205523.910 5  26044839.720        -101.490          39.000
 136179525.844 6  25914101.540        2093.444          45.000

 101692505.457 6  25914108.740        1563.280          45.000
 121688752.430 7  23156597.980         137.603          49.000

  90871472.719 8  23156605.060         102.751          51.000
 124188030.598 7  23632196.820       -1913.505          47.000

  92737815.637 7  23632203.520       -1428.934          47.000
 18 10 12  1  1 15.0000000  0 26G02G06G12G14G19G24G25G29G31G32S23S36
                                R04R05R06R13R14R15R17R23R24E18E19E21
                                E27E30
 125238503.180 6  23832094.440        1666.915          45.000    97588444.97743
  23832089.820        1298.879          30.000    23832093.600

 125731852.410 6  23925973.680         -90.879          44.000    97972883.91442
  23925974.180         -70.800          24.000    23925973.520

 108936568.789 8  20729935.560       -1904.696          52.000    84885644.83246
  20729932.620       -1484.188          41.000    20729935.240

 117628220.629 7  22383904.260        1505.771          47.000    91658346.34444
  22383901.480        1173.317          31.000    22383903.540

 129787523.148 5  24697741.460       -3652.554          38.000   101133132.93741
  24697737.060       -2846.115          20.000    24697740.160

 119983313.125 7  22832061.280       -3105.159          48.000    93493496.00845
  22832062.320       -2419.612          36.000    22832060.940

 107041209.922 8  20369260.920         638.319          52.000    83408739.91446
  20369261.000         497.385          43.000    20369259.940

 118202912.512 7  22493263.400        3451.981          49.000    92106160.69144
  22493261.420        2689.854          31.000    22493263.180

 124849547.043 6  23758079.700        3200.958          45.000    97285360.22743
  23758076.780        2494.230          26.000    23758079.560

 113833610.621 8  21661815.420        -338.750          51.000    88701507.54345
  21661815.540        -263.964          39.000    21661815.340

 205064056.500 7  39022391.140           3.130          46.000


 200999101.059 7  38248684.400           -.575          46.000


 126556361.453 6  23633506.980       -4202.391          41.000    98432722.793 5
                     -3268.578          38.000                    23633502.260

 116827246.086 7  21854945.000       -2221.577          47.000    90865610.465 6
                     -1727.915          44.000                    21854939.500

 121706079.934 5  22807666.720        1633.617          39.000


 122625257.852 5  22963767.800       -3228.002          39.000    95375200.336 4
                     -2510.660          35.000                    22963763.700

 105180848.246 8  19731654.900       -1038.205          53.000    81807331.094 8
                      -807.506          51.000                    19731649.980

 106480287.457 7  19926327.520        1545.977          50.000    82818004.277 6
                      1202.388          42.000                    19926323.780

 118094992.930 7  22068874.040        4260.221          48.000    91851681.059 6
                      3313.482          43.000                    22068868.520

 114698196.180 7  21441610.660       -2462.226          48.000    89209702.926 6
                     -1915.099          41.000                    21441606.900

 107823641.070 7  20163562.160        1336.364          46.000    83862834.461 5
                      1039.355          38.000                    20163555.900

  98960455.555 6  18831547.760       -4857.354          43.000

  73899042.125 6  18831558.920       -3627.288          42.000
 136868622.301 5  26045231.680        -143.227          40.000

 102207086.352 5  26045237.860        -106.958          39.000
 136148133.840 6  25908127.860        2092.108          45.000

 101669063.379 6  25908135.040        1562.265          45.000
 121686712.141 7  23156209.740         134.410          49.000

  90869949.125 8  23156216.800         100.358          51.000
 124216746.742 7  23637661.220       -1915.404          47.000

  92759259.496 7  23637668.220       -1430.347          47.000
 18 10 12  1  1 30.0000000  0 26G02G06G12G14G19G24G25G29G31G32S23S36
                                R04R05R06R13R14R15R17R23R24E18E19E21
                                E27E30
 125213544.230 6  23827344.920        1660.596          45.000    97568996.46543
  23827340.300        1293.954          29.000    23827344.060

 125733287.254 6  23926246.720        -100.621          44.000    97974001.97742
  23926247.220         -78.419          24.000    23926246.560

 108965178.129 8  20735379.740       -1910.103          52.000    84907937.82446
  20735376.800       -1488.395          41.000    20735379.420

 117605698.488 7  22379618.440        1496.952          47.000    91640796.61344
  22379615.660        1166.459          31.000    22379617.720

 129842336.953 5  24708172.180       -3656.200          38.000   101175844.98041
  24708167.780       -2848.983          16.000    24708170.880

 120029918.102 7  22840929.920       -3109.055          49.000    93529811.56645
  22840930.960       -2422.650          36.000    22840929.580

 107031686.645 8  20367448.700         631.294          52.000    83401319.18446
  20367448.780         491.913          44.000    20367447.720

 118151167.086 7  22483416.560        3447.177          49.000    92065839.59044
  22483414.580        2686.105          31.000    22483416.340

 124801545.641 6  23748945.340        3199.012          45.000    97247956.54742
  23748942.400        2492.735          25.000    23748945.200

 113838768.305 8  21662796.900        -349.154          51.000    88705526.51245
  21662797.020        -272.077          38.000    21662796.820

 205064008.254 6  39022381.920           3.056          45.000


 200999105.828 7  38248684.900           -.466          46.000


 126619404.695 6  23645279.880       -4203.663          41.000    98481756.395 5
                     -3269.549          38.000                    23645275.160

 116860651.371 7  21861194.140       -2232.719          48.000    90891592.355 6
                     -1736.586          45.000                    21861188.640

 121681666.148 5  22803091.360        1621.322          39.000


 122673696.633 6  22972838.840       -3230.706          41.000    95412874.965 4
                     -2512.840          34.000                    22972834.740

 105196469.469 8  19734585.400       -1044.881          53.000    81819480.926 8
                      -812.716          51.000                    19734580.480

 106457137.785 7  19921995.380        1540.409          50.000    82799998.969 6
                      1198.052          42.000                    19921991.640

 118031124.973 7  22056938.780        4255.207          47.000    91802005.977 6
                      3309.551          43.000                    22056933.260

 114735214.375 7  21448530.800       -2473.800          48.000    89238494.844 5
                     -1924.107          40.000                    21448527.060

 107803698.059 7  20159832.720        1322.427          46.000    83847323.223 5
                      1028.496          38.000                    20159826.460

  99033436.832 6  18845435.620       -4873.641          43.000

  73953541.152 6  18845446.700       -3639.424          42.000
 136870824.902 5  26045650.900        -150.690          40.000

 102208731.148 5  26045656.980        -112.526          39.000
 136116762.586 6  25902158.100        2090.526          45.000

 101645636.797 6  25902165.320        1561.070          45.000
 121684719.965 7  23155830.660         130.988          49.000

  90868461.457 8  23155837.680          97.778          51.000
 124245491.617 7  23643131.080       -1917.509          47.000

  92780724.809 7  23643138.340       -1431.930          47.000
 18 10 12  1  1 45.0000000  0 26G02G06G12G14G19G24G25G29G31G32S23S36
                                R04R05R06R13R14R15R17R23R24E18E19E21
                                E27E30
 125188678.191 6  23822613.060        1654.697          45.000    97549620.33243
  23822608.460        1289.378          30.000    23822612.200

 125734866.059 6  23926547.160        -110.037          43.000    97975232.21942
  23926547.640         -85.732          25.000    23926547.000

 108993865.883 8  20740838.840       -1915.074          52.000    84930291.91046
  20740835.920       -1492.263          41.000    20740838.520

 117583306.105 7  22375357.300        1488.547          47.000    91623348.00444
  22375354.520        1159.910          31.000    22375356.580

 129897203.664 5  24718612.960       -3659.451          39.000   101218598.29741
  24718608.560       -2851.553          18.000    24718611.660

 120076578.629 7  22849809.140       -3112.528          48.000    93566170.40245
  22849810.180       -2425.337          36.000    22849808.780

 107022265.820 8  20365655.980         624.642          52.000    83393978.27746
  20365656.060         486.738          43.000    20365654.980

 118099491.812 7  22473583.080        3442.731          50.000    92025573.14844
  22473581.100        2682.647          32.000    22473582.860

 124753570.961 6  23739816.060        3197.462          45.000    97210573.66442
  23739813.120        2491.539          25.000    23739815.920

 113844078.941 8  21663807.480        -359.090          51.000    88709664.66445
  21663807.600        -279.808          38.000    21663807.400

 205063960.203 7  39022372.780           3.237          46.000


 200999105.633 7  38248684.420            .137          46.000


 126682465.312 6  23657056.000       -4204.437          41.000    98530803.539 5
                     -3270.097          38.000                    23657051.300

 116894221.168 7  21867474.080       -2243.374          48.000    90917702.184 6
                     -1744.821          45.000                    21867468.580

 121657434.535 5  22798550.440        1609.466          39.000


 122722173.305 5  22981916.980       -3232.974          39.000    95450579.023 5
                     -2514.546          36.000                    22981912.880

 105212187.664 8  19737534.080       -1051.033          53.000    81831706.180 8
                      -817.441          51.000                    19737529.180

 106434069.945 7  19917678.540        1535.219          50.000    82782057.316 6
                      1194.079          42.000                    19917674.820

 117967330.008 7  22045017.160        4250.584          48.000    91752387.684 6
                      3306.025          43.000                    22045011.640

 114772403.598 7  21455482.920       -2484.878          48.000    89267419.781 5
                     -1932.646          40.000                    21455479.200

 107783961.801 7  20156141.920        1308.914          46.000    83831972.820 5
                      1018.054          37.000                    20156135.680

  99106659.645 6  18859369.480       -4889.529          43.000

  74008220.520 6  18859380.560       -3651.247          43.000
 136873137.766 5  26046091.100        -157.798          40.000

 102210458.289 5  26046097.120        -117.807          40.000
 136085412.086 6  25896192.260        2089.396          45.000

 101622225.707 6  25896199.500        1560.293          45.000
 121682775.926 7  23155460.720         128.048          49.000

  90867009.738 8  23155467.740          95.648          51.000
 124274265.215 7  23648606.440       -1919.130          47.000

  92802211.559 7  23648613.940       -1433.073          47.000
 18 10 12  1  2  0.0000000  0 26G02G06G12G14G19G24G25G29G31G32S23S36
                                R04R05R06R13R14R15R17R23R24E18E19E21
                                E27E30
 125163905.250 6  23817898.920        1648.414          45.000    97530316.75443
  23817894.360        1284.490          30.000    23817898.060

 125736588.812 6  23926874.980        -119.682          43.000    97976574.62942
  23926875.460         -93.273          25.000    23926874.820

 109022631.547 8  20746312.760       -1920.294          52.000    84952706.71546
  20746309.840       -1496.330          41.000    20746312.440

 117561043.742 7  22371120.920        1479.821          47.000    91606000.70344
  22371118.140        1153.105          31.000    22371120.200

 129952122.844 6  24729063.720       -3663.011          41.000   101261392.47741
  24729059.340       -2854.292          18.000    24729062.440

 120123294.426 7  22858698.880       -3116.195          48.000    93602572.33644
  22858699.900       -2428.199          34.000    22858698.520

 107012947.426 8  20363882.760         617.818          52.000    83386717.19546
  20363882.820         481.422          43.000    20363881.760

 118047886.945 7  22463763.000        3437.987          50.000    91985361.56244
  22463761.000        2678.968          32.000    22463762.780

 124705623.152 6  23730691.880        3195.611          45.000    97173211.73443
  23730688.940        2490.067          26.000    23730691.740

 113849542.418 7  21664847.160        -369.324          50.000    88713921.91045
  21664847.280        -287.785          38.000    21664847.060

 205063911.535 7  39022363.540           3.169          46.000


 200999102.168 7  38248683.480            .242          46.000


 126745542.836 5  23668835.300       -4205.711          40.000    98579863.828 5
                     -3271.065          37.000                    23668830.580

 116927954.816 7  21873784.680       -2254.373          48.000    90943939.469 6
                     -1753.385          45.000                    21873779.160

 121633385.371 5  22794043.940        1597.168          39.000


 122770687.930 6  22991002.220       -3235.580          41.000    95488312.621 5
                     -2516.528          36.000                    22990998.120

 105228002.859 8  19740500.980       -1057.582          53.000    81844006.875 8
                      -822.538          51.000                    19740496.080

 106411084.676 7  19913377.160        1529.602          49.000    82764179.883 6
                      1189.699          42.000                    19913373.440

 117903608.750 7  22033109.320        4245.624          47.000    91702826.695 6
                      3302.187          43.000                    22033103.780

 114809763.195 7  21462466.920       -2496.361          48.000    89296477.258 5
                     -1941.585          39.000                    21462463.180

 107764432.340 7  20152489.800        1295.081          46.000    83816783.242 5
                      1007.326          37.000                    20152483.580

  99180122.906 6  18873349.080       -4905.521          43.000

  74063079.449 6  18873360.300       -3663.189          44.000
 136875560.836 5  26046552.240        -165.279          40.000

 102212267.723 5  26046558.200        -123.426          39.000
 136054082.383 6  25890230.420        2087.979          45.000

 101598830.156 6  25890237.620        1559.231          45.000
 121680880.004 7  23155099.920         124.795          49.000

  90865593.953 8  23155106.960          93.211          51.000
 124303067.484 7  23654087.340       -1921.074          47.000

  92823719.727 7  23654094.940       -1434.532          47.000
 18 10 12  1  2 15.0000000  0 26G02G06G12G14G19G24G25G29G31G32S23S36
                                R04R05R06R13R14R15R17R23R24E18E19E21
                                E27E30
 125139225.605 6  23813202.540        1642.245          45.000    97511085.87543
  23813197.980        1279.657          29.000    23813201.680

 125738455.445 6  23927230.180        -129.246          43.000    97978029.15642
  23927230.680        -100.704          25.000    23927230.040

 109051475.160 8  20751801.520       -1925.476          52.000    84975182.25446
  20751798.600       -1500.377          41.000    20751801.200

 117538911.457 7  22366909.280        1471.186          47.000    91588754.77344
  22366906.500        1146.382          31.000    22366908.560

 130007094.004 6  24739524.380       -3666.412          41.000   101304227.21542
  24739519.980       -2856.971          21.000    24739523.100

 120170065.516 7  22867599.120       -3119.850          48.000    93639017.34044
  22867600.160       -2431.059          33.000    22867598.760

 107003731.312 8  20362128.980         610.986          52.000    83379535.80946
  20362129.060         476.082          43.000    20362127.980

 117996352.687 7  22453956.360        3433.320          49.000    91945205.00844
  22453954.360        2675.300          31.000    22453956.140

 124657702.344 6  23721572.860        3193.880          45.000    97135870.85543
  23721569.920        2488.719          26.000    23721572.720

 113855158.559 7  21665915.860        -379.528          50.000    88718298.12545
  21665916.000        -295.747          38.000    21665915.780

 205063862.879 7  39022354.300           3.256          46.000


 200999100.539 7  38248683.120           -.134          46.000


 126808636.637 6  23680617.620       -4206.710          41.000    98628936.766 5
                     -3271.915          37.000                    23680612.920

 116961851.871 7  21880125.820       -2265.209          48.000    90970303.832 6
                     -1761.884          45.000                    21880120.320

 121609518.719 5  22789571.460        1585.003          39.000


 122819240.234 6  23000094.520       -3238.041          41.000    95526075.504 5
                     -2518.542          37.000                    23000090.440

 105243914.824 8  19743486.020       -1063.993          53.000    81856382.852 8
                      -827.595          51.000                    19743481.140

 106388181.230 7  19909091.100        1524.178          50.000    82746366.098 6
                      1185.435          42.000                    19909087.360

 117839961.617 7  22021215.340        4240.704          47.000    91653323.406 6
                      3298.288          42.000                    22021209.800

 114847292.805 7  21469482.680       -2507.587          49.000    89325666.988 5
                     -1950.377          38.000                    21469478.960

 107745109.887 7  20148876.400        1281.302          47.000    83801754.676 5
                       996.540          37.000                    20148870.160

  99253825.492 6  18887374.180       -4921.392          42.000

  74118117.082 6  18887385.580       -3675.114          44.000
 136878093.969 5  26047034.280        -172.481          40.000

 102214159.352 5  26047040.240        -128.832          39.000
 136022773.375 6  25884272.540        2086.591          45.000

 101575450.059 6  25884279.700        1558.129          45.000
 121679032.102 7  23154748.280         121.637          49.000

  90864214.031 8  23154755.320          90.779          51.000
 124331898.289 7  23659573.720       -1922.967          48.000

  92845249.207 7  23659581.320       -1436.030          47.000
 18 10 12  1  2 30.0000000  0 26G02G06G12G14G19G24G25G29G31G32S23S36
                                R04R05R06R13R14R15R17R23R24E18E19E21
                                E27E30
 125114639.398 6  23808523.940        1636.042          45.000    97491927.78943
  23808519.380        1274.848          28.000    23808523.080

 125740465.891 6  23927612.760        -138.701          43.000    97979595.73842
  23927613.240        -108.083          24.000    23927612.600

 109080396.277 8  20757305.040       -1930.596          52.000    84997718.18846
  20757302.120       -1504.356          41.000    20757304.700

 117516909.133 7  22362722.380        1462.537          47.000    91571610.10944
  22362719.600        1139.645          31.000    22362721.660

 130062116.539 6  24749994.820       -3669.840          41.000   101347101.95342
  24749990.420       -2859.620          22.000    24749993.540

 120216891.418 7  22876509.800       -3123.463          46.000    93675505.05944
  22876510.840       -2433.858          32.000    22876509.440

 106994617.363 8  20360394.660         604.238          52.000    83372434.02746
  20360394.740         470.837          43.000    20360393.660

 117944889.227 7  22444163.180        3428.615          49.000    91905103.60544
  22444161.180        2671.654          32.000    22444162.960

 124609808.590 6  23712458.960        3192.081          45.000    97098551.05543
  23712456.040        2487.341          26.000    23712458.840

 113860927.223 7  21667013.600        -389.550          50.000    88722793.18045
  21667013.740        -303.542          38.000    21667013.520

 205063814.133 6  39022345.100           3.308          45.000


 200999101.051 7  38248683.260           -.084          46.000


 126871745.773 6  23692402.820       -4207.618          41.000    98678021.656 5
                     -3272.539          37.000                    23692398.120

 116995911.629 7  21886497.420       -2275.980          48.000    90996794.750 6
                     -1770.192          45.000                    21886491.920

 121585834.902 5  22785132.800        1572.878          38.000


 122867829.988 6  23009193.840       -3240.419          41.000    95563867.527 5
                     -2520.294          38.000                    23009189.760

 105259923.633 8  19746489.240       -1070.377          54.000    81868834.148 7
                      -832.486          50.000                    19746484.380

 106365359.867 7  19904820.380        1518.779          50.000    82728616.145 6
                      1181.300          42.000                    19904816.660

 117776388.902 7  22009335.240        4235.778          47.000    91603877.949 6
                      3294.536          43.000                    22009329.700

 114884991.555 7  21476530.080       -2518.769          49.000    89354988.242 5
                     -1959.011          39.000                    21476526.340

 107725994.215 7  20145301.660        1267.599          47.000    83786886.922 5
                       985.949          37.000                    20145295.440

  99327766.262 6  18901444.560       -4937.237          42.000

  74173332.562 6  18901456.140       -3686.867          44.000
 136880737.035 5  26047537.260        -179.834          40.000

 102216133.059 5  26047543.200        -134.263          39.000
 135991484.992 6  25878318.540        2085.313          45.000

 101552085.363 6  25878325.700        1557.232          45.000
 121677232.145 7  23154405.720         118.440          49.000

  90862869.898 8  23154412.820          88.466          51.000
 124360757.504 7  23665065.560       -1924.850          48.000

  92866799.910 7  23665073.040       -1437.367          47.000
 18 10 12  1  2 45.0000000  0 26G02G06G12G14G19G24G25G29G31G32S23S36
                                R04R05R06R13R14R15R17R23R24E18E19E21
                                E27E30
 125090147.215 6  23803863.240        1629.791          44.000    97472842.98443
  23803858.660        1269.974          27.000    23803862.380

 125742620.500 6  23928022.760        -148.340          44.000    97981274.66042
  23928023.260        -115.569          25.000    23928022.620

 109109395.086 8  20762823.320       -1935.759          52.000    85020314.66046
  20762820.420       -1508.382          41.000    20762823.000

 117495037.523 7  22358560.340        1453.842          47.000    91554567.29344
  22358557.560        1132.865          31.000    22358559.640

 130117190.703 6  24760475.080       -3673.197          41.000   101390016.88742
  24760470.680       -2862.249          22.000    24760473.800

 120263771.906 7  22885430.860       -3127.110          46.000    93712035.29744
  22885431.900       -2436.704          31.000    22885430.500

 106985605.887 8  20358679.820         597.478          52.000    83365412.09846
  20358679.900         465.565          43.000    20358678.820

 117893497.293 7  22434383.620        3423.837          50.000    91865057.93844
  22434381.600        2667.916          32.000    22434383.400

 124561942.246 7  23703350.300        3190.259          46.000    97061252.59043
  23703347.360        2485.918          26.000    23703350.180

 113866848.684 7  21668140.420        -399.788          50.000    88727407.29345
  21668140.560        -311.528          38.000    21668140.340

 205063765.523 7  39022335.920           3.376          46.000


 200999101.430 7  38248683.360            .264          46.000


 126934870.324 6  23704190.880       -4208.750          41.000    98727118.523 5
                     -3273.441          38.000                    23704186.180

 117030134.082 7  21892899.440       -2286.803          48.000    91023412.203 6
                     -1778.635          45.000                    21892893.940

 121562334.246 5  22780728.360        1560.633          38.000


 122916457.480 6  23018300.220       -3242.997          41.000    95601688.875 5
                     -2522.329          38.000                    23018296.140

 105276029.617 8  19749510.680       -1076.911          53.000    81881361.012 7
                      -837.603          50.000                    19749505.820

 106342621.004 7  19900565.120        1513.263          50.000    82710930.359 6
                      1176.988          42.000                    19900561.400

 117712891.453 7  21997469.220        4230.735          48.000    91554491.055 6
                      3290.576          43.000                    21997463.680

 114922859.781 7  21483609.140       -2530.064          49.000    89384441.320 5
                     -1967.819          39.000                    21483605.400

 107707086.164 7  20141765.760        1253.717          46.000    83772180.668 5
                       975.116          37.000                    20141759.520

  99401944.488 6  18915560.100       -4952.949          42.000

  74228725.379 6  18915571.780       -3698.643          43.000
 136883490.352 5  26048061.220        -187.121          40.000

 102218189.109 5  26048067.160        -139.748          39.000
 135960217.609 6  25872368.580        2083.875          45.000

 101528736.352 6  25872375.740        1556.116          45.000
 121675480.465 7  23154072.380         115.271          49.000

  90861561.832 8  23154079.480          86.072          51.000
 124389645.434 7  23670562.860       -1926.734          48.000

  92888372.059 7  23670570.200       -1438.798          46.000
 18 10 12  1  3  0.0000000  0 26G02G06G12G14G19G24G25G29G31G32S23S36
                                R04R05R06R13R14R15R17R23R24E18E19E21
                                E27E30
 125065749.586 6  23799220.520        1623.312          42.000    97453831.83643
  23799215.940        1264.906          26.000    23799219.640

 125744919.496 6  23928460.240        -158.146          43.000    97983066.07442
  23928460.740        -123.240          25.000    23928460.100

 109138471.625 8  20768356.400       -1941.065          52.000    85042971.70345
  20768353.500       -1512.515          40.000    20768356.080

 117473297.059 7  22354423.280        1444.953          47.000    91537626.66044
  22354420.500        1125.932          31.000    22354422.560

 130172316.305 5  24770965.120       -3676.736          40.000   101432971.87542
  24770960.720       -2864.974          22.000    24770963.840

 120310707.656 7  22894362.420       -3130.969          46.000    93748608.60544
  22894363.480       -2439.710          32.000    22894362.080

 106976697.070 8  20356984.540         590.448          52.000    83358470.16446
  20356984.620         460.093          43.000    20356983.540

 117842177.348 7  22424617.760        3418.878          50.000    91825068.38344
  22424615.740        2664.063          33.000    22424617.520

 124514103.918 6  23694246.960        3188.217          45.000    97023975.96943
  23694244.040        2484.321          26.000    23694246.840

 113872923.082 7  21669296.360        -410.102          50.000    88732140.59045
  21669296.480        -319.562          39.000    21669296.260

 205063717.770 7  39022326.900           3.126          46.000


 200999100.188 7  38248683.260           -.065          46.000


 126998009.871 6  23715981.760       -4209.891          41.000    98776227.094 5
                     -3274.348          37.000                    23715977.060

 117064518.934 7  21899331.860       -2297.824          48.000    91050155.969 6
                     -1787.203          45.000                    21899326.360

 121539017.105 5  22776358.760        1548.283          39.000


 122965122.719 5  23027413.660       -3245.657          40.000    95639539.609 5
                     -2524.400          37.000                    23027409.580

 105292232.832 8  19752550.360       -1083.565          54.000    81893963.512 7
                      -842.766          50.000                    19752545.520

 106319964.668 7  19896325.300        1507.600          50.000    82693308.758 6
                      1172.578          42.000                    19896321.580

 117649470.094 7  21985617.420        4225.460          47.000    91505163.340 6
                      3286.471          42.000                    21985611.860

 114960896.949 7  21490719.800       -2541.510          49.000    89414025.785 5
                     -1976.756          40.000                    21490716.040

 107688385.949 7  20138268.740        1239.677          46.000    83757636.055 5
                       964.215          37.000                    20138262.480

  99476359.359 6  18929720.760       -4968.932          43.000

  74284294.926 6  18929732.380       -3710.544          42.000
 136886354.090 5  26048606.200        -194.657          40.000

 102220327.621 5  26048612.120        -145.350          39.000
 135928971.480 6  25866422.660        2082.285          45.000

 101505403.207 6  25866429.800        1554.968          45.000
 121673777.297 7  23153748.260         111.861          49.000

  90860289.980 8  23153755.380          83.552          51.000
 124418562.277 7  23676065.680       -1928.788          48.000

  92909965.797 7  23676072.800       -1440.315          46.000
 18 10 12  1  3 15.0000000  0 26G02G06G12G14G19G24G25G29G31G32S23S36
                                R04R05R06R13R14R15R17R23R24E18E19E21
                                E27E30
 125041445.719 6  23794595.620        1617.118          43.000    97434893.77042
  23794591.040        1260.117          25.000    23794594.760

 125747361.922 6  23928925.020        -167.671          43.000    97984969.28142
  23928925.520        -130.648          24.000    23928924.860

 109167624.633 8  20773904.020       -1946.112          52.000    85065688.32445
  20773901.120       -1516.446          40.000    20773903.700

 117451686.852 7  22350310.980        1436.319          47.000    91520787.53944
  22350308.200        1119.214          31.000    22350310.280

 130227491.898 5  24781464.680       -3679.959          37.000   101475965.80941
  24781460.280       -2867.493          18.000    24781463.400

 120357697.469 7  22903304.300       -3134.475          47.000    93785224.02344
  22903305.360       -2442.443          32.000    22903303.960

 106967889.937 8  20355308.600         583.722          52.000    83351607.46546
  20355308.660         454.852          43.000    20355307.600

 117790928.793 8  22414865.480        3414.173          51.000    91785134.44544
  22414863.460        2660.406          32.000    22414865.260

 124466292.762 6  23685148.800        3186.470          45.000    96986720.54343
  23685145.880        2482.966          26.000    23685148.680

 113879149.355 7  21670481.180        -420.153          50.000    88736992.22745
  21670481.320        -327.388          39.000    21670481.080

 205063669.504 7  39022317.820           3.194          46.000


 200999099.395 7  38248683.340           -.035          46.000


 127061162.941 6  23727775.160       -4210.649          41.000    98825346.090 5
                     -3274.929          38.000                    23727770.460

 117099064.891 7  21905794.400       -2308.428          48.000    91077025.035 6
                     -1795.425          45.000                    21905788.900

 121515882.926 5  22772023.240        1536.105          38.000


 123013825.004 5  23036534.040       -3248.123          38.000    95677419.129 5
                     -2526.291          37.000                    23036529.980

 105308532.539 8  19755608.140       -1089.875          54.000    81906641.047 7
                      -847.666          50.000                    19755603.300

 106297390.602 7  19892100.860        1502.194          50.000    82675751.152 6
                      1168.400          42.000                    19892097.140

 117586124.410 7  21973779.760        4220.508          47.000    91455894.465 6
                      3282.632          42.000                    21973774.200

 114999101.855 7  21497861.800       -2552.600          48.000    89443740.719 5
                     -1985.331          40.000                    21497858.040

 107669893.199 7  20134810.500        1225.914          46.000    83743252.809 5
                       953.461          37.000                    20134804.240

  99551008.859 6  18943926.080       -4984.484          43.000

  74340039.688 6  18943937.560       -3722.129          42.000
 136889327.230 5  26049172.000        -201.863          40.000

 102222547.824 5  26049177.840        -150.723          39.000
 135897745.645 6  25860480.580        2081.032          45.000

 101482085.219 6  25860487.760        1554.037          45.000
 121672121.680 7  23153433.200         108.773          49.000

  90859053.645 8  23153440.320          81.260          51.000
 124447507.062 7  23681573.800       -1930.597          48.000

  92931580.406 7  23681580.720       -1441.645          46.000
 18 10 12  1  3 30.0000000  0 26G02G06G12G14G19G24G25G29G31G32S23S36
                                R04R05R06R13R14R15R17R23R24E18E19E21
                                E27E30
 125017236.902 6  23789988.840        1610.881          42.000    97416029.75442
  23789984.240        1255.253          25.000    23789987.980

 125749948.852 6  23929417.300        -177.181          43.000    97986985.07442
  23929417.780        -138.047          25.000    23929417.140

 109196855.035 8  20779466.380       -1951.190          52.000    85088465.27345
  20779463.500       -1520.410          40.000    20779466.060

 117430208.145 7  22346223.720        1427.626          47.000    91504050.88344
  22346220.940        1112.430          31.000    22346223.020

 130282718.137 5  24791973.880       -3683.337          38.000   101518999.21542
  24791969.480       -2870.123          21.000    24791972.600

 120404741.887 7  22912256.560       -3138.039          48.000    93821882.01244
  22912257.620       -2445.225          34.000    22912256.220

 106959185.461 8  20353652.180         576.964          52.000    83344824.75846
  20353652.260         449.581          43.000    20353651.180

 117739752.910 7  22405127.040        3409.370          50.000    91745257.13744
  22405125.020        2656.655          33.000    22405126.800

 124418510.059 7  23676056.060        3184.664          46.000    96949487.25443
  23676053.120        2481.556          26.000    23676055.920

 113885528.574 7  21671695.100        -430.265          50.000    88741963.03945
  21671695.240        -335.271          39.000    21671695.020

 205063621.680 7  39022308.780           3.288          46.000


 200999101.160 7  38248683.920           -.065          46.000


 127124329.863 5  23739571.140       -4211.503          40.000    98874475.926 5
                     -3275.588          37.000                    23739566.440

 117133772.395 7  21912287.160       -2319.091          48.000    91104019.758 6
                     -1803.719          44.000                    21912281.680

 121492933.105 5  22767722.360        1523.929          39.000


 123062565.168 5  23045661.500       -3250.439          38.000    95715328.133 4
                     -2528.083          35.000                    23045657.460

 105324929.695 8  19758684.220       -1096.273          54.000    81919394.402 7
                      -852.641          50.000                    19758679.380

 106274899.711 7  19887892.000        1496.781          50.000    82658258.238 6
                      1164.183          42.000                    19887888.280

 117522855.945 7  21961956.540        4215.430          47.000    91406685.652 6
                      3278.683          42.000                    21961950.960

 115037475.016 7  21505035.240       -2563.744          48.000    89473586.484 6
                     -1994.002          41.000                    21505031.500

 107651608.758 7  20131391.220        1212.131          46.000    83729031.574 5
                       942.779          36.000                    20131384.940

  99625892.949 6  18958176.060       -4999.981          42.000

  74395959.656 6  18958187.400       -3733.755          42.000
 136892410.820 5  26049758.820        -209.167          40.000

 102224850.496 5  26049764.620        -156.192          39.000
 135866541.168 6  25854542.540        2079.654          45.000

 101458783.172 6  25854549.720        1552.983          45.000
 121670514.668 7  23153127.380         105.584          49.000

  90857853.602 8  23153134.520          78.855          51.000
 124476480.785 7  23687087.340       -1932.475          48.000

  92953216.629 7  23687094.140       -1443.079          46.000
 18 10 12  1  3 45.0000000  0 26G02G06G12G14G19G24G25G29G31G32S23S36
                                R04R05R06R13R14R15R17R23R24E18E19E21
                                E27E30
 124993122.844 6  23785400.060        1604.524          43.000    97397239.57842
  23785395.480        1250.267          25.000    23785399.200

 125752679.707 6  23929936.960        -186.761          43.000    97989113.01242
  23929937.440        -145.520          24.000    23929936.800

 109226162.062 8  20785043.320       -1956.265          52.000    85111301.91445
  20785040.440       -1524.359          40.000    20785043.000

 117408860.871 7  22342161.480        1418.840          47.000    91487416.63744
  22342158.700        1105.587          31.000    22342160.760

 130337994.297 5  24802492.580       -3686.637          39.000   101562071.51241
  24802488.180       -2872.713          18.000    24802491.300

 120451840.469 7  22921219.140       -3141.567          47.000    93858582.18044
  22921220.200       -2447.972          32.000    22921218.780

 106950583.047 8  20352015.200         570.144          52.000    83338121.58246
  20352015.280         444.268          43.000    20352014.200

 117688649.430 7  22395402.380        3404.539          50.000    91705436.24644
  22395400.340        2652.885          33.000    22395402.140

 124370755.500 6  23666968.660        3182.794          45.000    96912275.90243
  23666965.740        2480.101          26.000    23666968.520

 113892059.996 7  21672938.000        -440.409          50.000    88747052.46545
  21672938.140        -343.175          39.000    21672937.900

 205063573.590 7  39022299.660           3.307          46.000


 200999104.348 7  38248684.680           -.220          46.000


 127187509.590 6  23751369.500       -4212.348          41.000    98923615.723 5
                     -3276.300          37.000                    23751364.820

 117168640.414 7  21918809.940       -2329.797          48.000    91131139.297 6
                     -1812.085          44.000                    21918804.460

 121470167.305 5  22763456.180        1511.658          39.000


 123111342.324 5  23054795.900       -3253.008          38.000    95753265.902 4
                     -2530.119          34.000                    23054791.860

 105341423.480 8  19761778.420       -1102.737          54.000    81932222.891 7
                      -857.683          50.000                    19761773.580

 106252491.312 7  19883698.580        1491.177          50.000    82640829.484 6
                      1159.799          42.000                    19883694.860

 117459664.566 7  21950147.720        4210.238          47.000    91357536.816 6
                      3274.615          42.000                    21950142.140

 115076015.277 7  21512239.940       -2574.848          48.000    89503562.234 6
                     -2002.661          41.000                    21512236.200

 107633532.406 7  20128010.840        1198.222          47.000    83714972.199 5
                       931.948          36.000                    20128004.560

  99701010.027 6  18972470.340       -5015.482          42.000

  74452053.590 6  18972481.660       -3745.330          42.000
 136895604.199 5  26050366.500        -216.510          40.000

 102227235.160 5  26050372.320        -161.688          39.000
 135835357.500 6  25848608.520        2078.304          45.000

 101435496.672 6  25848615.620        1551.963          44.000
 121668955.656 7  23152830.700         102.400          49.000

  90856689.402 8  23152837.840          76.459          51.000
 124505482.805 7  23692606.240       -1934.337          48.000

  92974873.969 7  23692613.000       -1444.476          46.000
 18 10 12  1  4  0.0000000  0 26G02G06G12G14G19G24G25G29G31G32S23S36
                                R04R05R06R13R14R15R17R23R24E18E19E21
                                E27E30
 124969103.984 6  23780829.400        1597.960          43.000    97378523.60943
  23780824.820        1245.158          26.000    23780828.560

 125755554.824 6  23930484.060        -196.604          43.000    97991353.37142
  23930484.560        -153.218          23.000    23930483.920

 109255545.824 8  20790634.860       -1961.614          52.000    85134198.35245
  20790631.980       -1528.534          40.000    20790634.540

 117387645.188 7  22338124.280        1409.850          47.000    91470884.93444
  22338121.500        1098.584          31.000    22338123.560

 130393320.172 6  24813020.740       -3690.162          41.000   101605182.60541
  24813016.340       -2875.458          18.000    24813019.460

 120498993.031 7  22930191.980       -3145.420          47.000    93895324.43044
  22930193.040       -2450.975          32.000    22930191.620

 106942083.012 8  20350397.680         563.132          52.000    83331498.18046
  20350397.780         438.798          43.000    20350396.700

 117637619.098 8  22385691.620        3399.468          51.000    91665672.35244
  22385689.580        2648.932          33.000    22385691.380

 124323029.504 7  23657886.700        3180.638          46.000    96875086.82443
  23657883.780        2478.412          26.000    23657886.560

 113898743.898 8  21674209.900        -450.822          51.000    88752260.69145
  21674210.040        -351.299          39.000    21674209.820

 205063525.457 6  39022290.540           3.063          45.000


 200999107.273 7  38248685.260           -.404          46.000


 127250701.961 5  23763170.240       -4213.257          40.000    98972765.340 5
                     -3277.023          38.000                    23763165.540

 117203668.977 7  21925362.780       -2340.653          48.000    91158383.762 6
                     -1820.532          45.000                    21925357.300

 121447586.031 5  22759224.560        1499.135          39.000


 123160156.613 5  23063937.260       -3255.632          40.000    95791232.617 4
                     -2532.165          35.000                    23063933.220

 105358014.484 8  19764890.840       -1109.426          54.000    81945127.012 7
                      -862.925          49.000                    19764886.020

 106230166.250 7  19879520.740        1485.444          49.000    82623465.543 6
                      1155.311          42.000                    19879517.020

 117396551.215 7  21938353.480        4204.865          47.000    91308448.656 6
                      3270.422          43.000                    21938347.880

 115114722.637 7  21519475.860       -2586.140          48.000    89533667.949 6
                     -2011.463          41.000                    21519472.120

 107615664.766 7  20124669.500        1184.073          46.000    83701075.137 5
                       920.948          36.000                    20124663.220

  99776359.379 6  18986808.820       -5031.146          41.000

  74508320.957 6  18986820.220       -3757.039          43.000
 136898907.656 5  26050995.120        -224.019          40.000

 102229702.027 5  26051000.920        -167.296          39.000
 135804194.996 6  25842678.480        2076.711          45.000

 101412225.980 6  25842685.580        1550.775          45.000
 121667445.023 7  23152543.240          98.975          49.000

  90855561.336 8  23152550.380          73.890          51.000
 124534513.473 7  23698130.520       -1936.452          47.000

  92996552.719 7  23698137.320       -1446.078          46.000
 18 10 12  1  4 15.0000000  0 26G02G06G12G14G19G24G25G29G31G32S23S36
                                R04R05R06R13R14R15R17R23R24E18E19E21
                                E27E30
 124945180.602 6  23776276.920        1591.553          44.000    97359882.01643
  23776272.340        1240.167          27.000    23776276.080

 125758574.129 6  23931058.620        -206.194          43.000    97993706.05942
  23931059.100        -160.670          23.000    23931058.460

 109285006.016 8  20796240.960       -1966.682          52.000    85157154.34845
  20796238.060       -1532.478          40.000    20796240.640

 117366561.270 7  22334112.140        1401.068          47.000    91454455.90244
  22334109.360        1091.749          31.000    22334111.420

 130448695.473 6  24823558.300       -3693.478          41.000   101648332.30141
  24823553.900       -2878.030          20.000    24823557.020

 120546199.543 6  22939175.080       -3149.055          45.000    93932108.71543
  22939176.160       -2453.804          29.000    22939174.720

 106933685.215 8  20348799.640         556.366          52.000    83324954.44146
  20348799.720         433.536          43.000    20348798.640

 117586661.996 8  22375994.800        3394.564          51.000    91625965.53544
  22375992.760        2645.119          34.000    22375994.560

 124275332.082 6  23648810.200        3178.716          45.000    96837920.01243
  23648807.260        2476.912          26.000    23648810.040

 113905580.109 8  21675510.800        -460.937          51.000    88757587.60245
  21675510.940        -359.171          39.000    21675510.700

 205063477.133 7  39022281.380           3.042          46.000


 200999110.762 7  38248685.880           -.470          46.000


 127313906.527 6  23774973.260       -4214.146          41.000    99021924.438 5
                     -3277.658          37.000                    23774968.560

 117238857.391 7  21931945.500       -2351.332          48.000    91185752.488 6
                     -1828.802          44.000                    21931940.020

 121425189.418 5  22755027.740        1486.934          40.000


 123209008.098 5  23073085.580       -3258.172          39.000    95829228.211 4
                     -2534.100          35.000                    23073081.560

 105374702.547 8  19768021.480       -1115.903          54.000    81958106.613 7
                      -867.903          50.000                    19768016.660

 106207924.516 7  19875358.500        1479.908          49.000    82606166.414 6
                      1151.077          42.000                    19875354.780

 117333516.227 7  21926573.880        4199.579          47.000    91259421.453 6
                      3266.348          43.000                    21926568.280

 115153596.582 7  21526742.940       -2597.256          48.000    89563903.223 5
                     -2020.086          40.000                    21526739.200

 107598005.758 7  20121367.180        1170.213          46.000    83687340.355 5
                       910.191          37.000                    20121360.880

  99851939.859 6  19001191.240       -5046.538          42.000

  74564760.910 6  19001202.840       -3768.530          44.000
 136902321.047 5  26051644.700        -231.337          40.000

 102232250.977 5  26051650.500        -172.728          39.000
 135773053.578 6  25836752.480        2075.257          45.000

 101388971.020 6  25836759.560        1549.721          44.000
 121665982.660 7  23152264.960          95.738          48.000

  90854469.305 8  23152272.100          71.507          51.000
 124563572.629 7  23703660.180       -1938.364          47.000

  93018252.730 7  23703667.120       -1447.472          46.000
 18 10 12  1  4 30.0000000  0 26G02G06G12G14G19G24G25G29G31G32S23S36
                                R04R05R06R13R14R15R17R23R24E18E19E21
                                E27E30
 124921352.895 6  23771742.660        1585.344          44.000    97341314.98843
  23771738.080        1235.346          27.000    23771741.800

 125761737.574 6  23931660.600        -215.668          42.000    97996171.07842
  23931661.080        -168.053          24.000    23931660.440

 109314542.340 8  20801861.540       -1971.571          52.000    85180169.66445
  20801858.640       -1536.290          40.000    20801861.220

 117345609.254 7  22330125.120        1392.453          48.000    91438129.65644
  22330122.320        1085.031          31.000    22330124.380

 130504119.492 6  24834105.140       -3696.535          41.000   101691519.87941
  24834100.720       -2880.391          18.000    24834103.860

 120593459.848 6  22948168.400       -3152.389          45.000    93968934.91443
  22948169.500       -2456.411          29.000    22948168.060

 106925389.562 8  20347221.020         549.687          52.000    83318490.30546
  20347221.120         428.331          43.000    20347220.020

 117535778.352 8  22366311.980        3389.812          51.000    91586315.94144
  22366309.940        2641.414          34.000    22366311.740

 124227663.488 7  23639739.160        3176.993          46.000    96800775.65243
  23639736.240        2475.578          27.000    23639739.020

 113912568.527 7  21676840.660        -470.914          50.000    88763033.10945
  21676840.800        -366.946          39.000    21676840.560

 205063428.711 7  39022272.180           3.249          46.000


 200999115.070 7  38248686.520           -.167          46.000


 127377122.504 6  23786778.400       -4214.640          41.000    99071092.406 5
                     -3278.016          37.000                    23786773.700

 117274205.055 7  21938558.020       -2361.787          48.000    91213245.109 6
                     -1836.933          45.000                    21938552.540

 121402977.465 5  22750865.220        1474.689          39.000


 123257896.598 5  23082240.840       -3260.358          40.000    95867252.605 5
                     -2535.807          36.000                    23082236.820

 105391487.613 8  19771170.320       -1122.175          53.000    81971161.668 7
                      -872.791          50.000                    19771165.500

 106185766.090 7  19871211.860        1474.487          50.000    82588932.090 6
                      1146.819          42.000                    19871208.140

 117270560.164 7  21914809.040        4194.496          46.000    91210455.621 6
                      3262.374          42.000                    21914803.440

 115192636.461 7  21534041.040       -2608.129          48.000    89594267.570 5
                     -2028.527          39.000                    21534037.300

 107580555.625 7  20118103.920        1156.431          46.000    83673768.031 5
                       899.452          37.000                    20118097.600

  99927750.352 6  19015617.460       -5061.635          42.000

  74621372.609 6  19015629.220       -3779.803          44.000
 136905844.305 6  26052315.160        -238.560          41.000

 102234881.977 5  26052320.960        -178.158          39.000
 135741933.180 6  25830830.480        2074.037          45.000

 101365731.770 6  25830837.540        1548.784          44.000
 121664568.516 7  23151995.840          92.714          49.000

  90853413.293 8  23152003.000          69.219          51.000
 124592660.211 7  23709195.220       -1940.063          47.000

  93039973.957 7  23709202.380       -1448.747          47.000
 18 10 12  1  4 45.0000000  0 26G02G06G12G14G19G24G25G29G31G32S23S36
                                R04R05R06R13R14R15R17R23R24E18E19E21
                                E27E30
 124897621.188 6  23767226.660        1579.086          44.000    97322822.75843
  23767222.080        1230.465          27.000    23767225.800

 125765045.215 6  23932290.020        -225.180          43.000    97998748.48042
  23932290.520        -175.468          24.000    23932289.860

 109344154.805 8  20807496.600       -1976.511          52.000    85203244.30945
  20807493.700       -1540.138          40.000    20807496.280

 117324789.363 7  22326163.220        1383.788          47.000    91421906.35944
  22326160.440        1078.281          31.000    22326162.500

 130559592.137 6  24844661.240       -3699.605          41.000   101734745.35941
  24844656.820       -2882.833          19.000    24844659.960

 120640773.535 6  22957171.900       -3155.872          45.000    94005802.70743
  22957173.000       -2459.125          28.000    22957171.560

 106917196.129 8  20345661.860         543.023          52.000    83312105.80546
  20345661.960         423.137          43.000    20345660.860

 117484968.578 8  22356643.200        3385.029          51.000    91546723.90644
  22356641.160        2637.684          34.000    22356642.960

 124180023.953 7  23630673.660        3175.182          46.000    96763653.92643
  23630670.720        2474.158          27.000    23630673.520

 113919709.113 8  21678199.460        -480.940          51.000    88768597.19945
  21678199.620        -374.754          39.000    21678199.380

 205063380.641 7  39022263.040           3.462          46.000


 200999116.426 7  38248686.500            .116          46.000


 127440349.383 5  23798585.580       -4215.284          40.000    99120268.910 5
                     -3278.527          37.000                    23798580.880

 117309711.664 7  21945200.280       -2372.194          48.000    91240861.367 6
                     -1845.031          44.000                    21945194.800

 121380950.672 6  22746737.500        1462.486          41.000


 123306822.258 5  23091403.040       -3262.753          39.000    95905305.887 5
                     -2537.688          37.000                    23091399.020

 105408369.680 8  19774337.360       -1128.448          54.000    81984292.156 7
                      -877.670          50.000                    19774332.520

 106163691.727 7  19867080.940        1469.011          49.000    82571763.145 6
                      1142.572          42.000                    19867077.220

 117207683.664 7  21903059.060        4189.347          46.000    91161551.688 6
                      3258.415          43.000                    21903053.440

 115231842.129 7  21541370.140       -2619.020          49.000    89624760.875 5
                     -2037.005          38.000                    21541366.380

 107563314.691 7  20114879.780        1142.631          46.000    83660358.418 5
                       888.714          37.000                    20114873.460

 100003789.867 6  19030087.300       -5076.676          42.000

  74678155.363 6  19030099.120       -3791.015          43.000
 136909477.418 5  26053006.540        -245.642          40.000

 102237595.023 5  26053012.340        -183.410          39.000
 135710833.992 6  25824912.500        2072.741          45.000

 101342508.348 6  25824919.540        1547.820          44.000
 121663202.707 7  23151735.920          89.628          49.000

  90852393.371 8  23151743.100          66.927          51.000
 124621776.277 7  23714735.700       -1941.818          47.000

  93061716.461 7  23714743.120       -1450.053          47.000
 18 10 12  1  5  0.0000000  0 26G02G06G12G14G19G24G25G29G31G32S23S36
                                R04R05R06R13R14R15R17R23R24E18E19E21
                                E27E30
 124873985.453 6  23762728.920        1572.466          44.000    97304405.30143
  23762724.340        1225.293          28.000    23762728.060

 125768496.758 6  23932946.820        -234.923          42.000    98001438.01242
  23932947.320        -183.080          23.000    23932946.660

 109373842.949 8  20813146.060       -1981.760          52.000    85226377.92245
  20813143.180       -1544.229          40.000    20813145.740

 117304101.457 7  22322226.460        1374.751          47.000    91405785.90244
  22322223.660        1071.244          31.000    22322225.720

 130615112.664 5  24855226.420       -3702.989          39.000   101778008.09841
  24855222.020       -2885.473          20.000    24855225.160

 120688140.629 7  22966185.540       -3159.579          46.000    94042712.14543
  22966186.660       -2461.995          28.000    22966185.240

 106909104.547 8  20344122.080         535.996          52.000    83305800.67646
  20344122.180         417.659          43.000    20344121.080

 117434232.602 8  22346988.460        3379.888          51.000    91507189.39544
  22346986.420        2633.686          34.000    22346988.220

 124132413.477 6  23621613.680        3173.013          45.000    96726554.85943
  23621610.760        2472.482          26.000    23621613.540

 113927001.492 7  21679587.160        -491.228          50.000    88774279.57045
  21679587.320        -382.773          39.000    21679587.080

 205063332.133 6  39022253.760           3.249          45.000


 200999113.961 7  38248685.900            .115          46.000


 127503586.488 5  23810394.660       -4216.317          40.000    99169453.320 5
                     -3279.328          37.000                    23810389.960

 117345376.508 7  21951872.120       -2383.025          48.000    91268600.676 6
                     -1853.451          45.000                    21951866.660

 121359109.086 5  22742644.420        1449.819          40.000


 123355784.348 5  23100572.080       -3265.502          38.000    95943387.461 5
                     -2539.844          38.000                    23100568.060

 105425348.375 8  19777522.520       -1135.260          53.000    81997497.801 7
                      -882.965          50.000                    19777517.680

 106141701.023 7  19862965.680        1463.164          49.000    82554659.258 6
                      1138.037          42.000                    19862961.960

 117144886.836 7  21891323.960        4183.709          47.000    91112709.707 6
                      3254.024          42.000                    21891318.340

 115271212.691 7  21548730.060       -2630.289          49.000    89655382.453 5
                     -2045.761          39.000                    21548726.300

 107546282.605 7  20111694.680        1128.405          46.000    83647111.238 5
                       877.670          37.000                    20111688.360

 100080057.055 6  19044600.480       -5092.093          42.000

  74735108.133 6  19044612.320       -3802.513          43.000
 136913220.090 5  26053718.700        -253.207          40.000

 102240389.867 5  26053724.560        -189.048          39.000
 135679755.676 6  25818998.520        2071.150          45.000

 101319300.512 6  25819005.520        1546.671          44.000
 121661884.902 7  23151485.160          86.205          48.000

  90851409.289 8  23151492.320          64.403          51.000
 124650920.457 7  23720281.600       -1943.923          47.000

  93083479.953 7  23720289.200       -1451.598          47.000
 18 10 12  1  5 15.0000000  0 26G02G06G12G14G19G24G25G29G31G32S23S36
                                R04R05R06R13R14R15R17R23R24E18E19E21
                                E27E30
 124850446.359 6  23758249.560        1566.058          45.000    97286063.18443
  23758245.000        1220.300          28.000    23758248.720

 125772092.680 6  23933631.100        -244.594          42.000    98004240.02342
  23933631.600        -190.587          23.000    23933630.940

 109403606.930 8  20818809.960       -1986.811          52.000    85249570.64546
  20818807.060       -1548.163          41.000    20818809.640

 117283546.273 7  22318314.940        1365.865          47.000    91389768.89144
  22318312.140        1064.308          32.000    22318314.200

 130670681.133 5  24865800.740       -3706.078          38.000   101821308.15641
  24865796.320       -2887.829          20.000    24865799.480

 120735561.184 7  22975209.380       -3163.171          47.000    94079663.23843
  22975210.500       -2464.807          30.000    22975209.080

 106901115.234 8  20342601.760         529.178          52.000    83299575.24246
  20342601.860         412.345          43.000    20342600.760

 117383571.219 8  22337347.920        3374.914          51.000    91467712.99244
  22337345.880        2629.804          34.000    22337347.680

 124084832.527 6  23612559.340        3171.052          45.000    96689478.79343
  23612556.400        2470.946          27.000    23612559.180

 113934446.039 7  21681003.820        -501.396          50.000    88780080.50445
  21681003.980        -390.690          39.000    21681003.720

 205063283.883 6  39022244.540           3.183          45.000


 200999111.137 7  38248685.360           -.004          46.000


 127566833.582 5  23822205.620       -4216.880          40.000    99218645.516 5
                     -3279.775          38.000                    23822200.920

 117381199.523 7  21958573.560       -2393.465          47.000    91296463.016 6
                     -1861.566          44.000                    21958568.100

 121337453.039 5  22738586.040        1437.542          40.000


 123404783.598 5  23109748.080       -3267.839          38.000    95981497.980 5
                     -2541.590          38.000                    23109744.060

 105442424.340 8  19780725.940       -1141.692          54.000    82010779.121 7
                      -887.956          50.000                    19780721.100

 106119794.023 7  19858866.080        1457.629          49.000    82537620.484 6
                      1133.737          42.000                    19858862.380

 117082170.633 7  21879603.940        4178.341          47.000    91063930.434 6
                      3249.836          43.000                    21879598.320

 115310748.090 7  21556120.800       -2641.180          49.000    89686132.230 5
                     -2054.229          38.000                    21556117.020

 107529460.301 7  20108548.820        1114.451          46.000    83634027.227 5
                       866.824          37.000                    20108542.520

 100156551.297 6  19059156.880       -5107.192          42.000

  74792230.473 6  19059168.660       -3813.772          42.000
 136917072.703 6  26054451.820        -260.541          41.000

 102243266.824 5  26054457.680        -194.527          39.000
 135648698.719 6  25813088.600        2069.699          45.000

 101296108.637 6  25813095.560        1545.581          45.000
 121660615.555 7  23151243.600          82.998          48.000

  90850461.398 8  23151250.760          62.015          51.000
 124680093.172 7  23725832.980       -1945.827          47.000

  93105264.762 7  23725840.760       -1453.016          47.000
 18 10 12  1  5 30.0000000  0 26G02G06G12G14G19G24G25G29G31G32S23S36
                                R04R05R06R13R14R15R17R23R24E18E19E21
                                E27E30
 124827004.074 6  23753788.640        1559.506          44.000    97267796.47743
  23753784.080        1215.191          28.000    23753787.780

 125775832.871 6  23934342.820        -254.242          42.000    98007154.45742
  23934343.320        -198.130          23.000    23934342.680

 109433446.477 8  20824488.240       -1991.909          52.000    85272822.23445
  20824485.340       -1552.141          40.000    20824487.920

 117263123.812 7  22314428.680        1356.991          48.000    91373855.28144
  22314425.880        1057.388          31.000    22314427.940

 130726297.098 5  24876384.100       -3709.364          38.000   101864645.22341
  24876379.680       -2890.395          19.000    24876382.840

 120783034.832 7  22984243.340       -3166.764          47.000    94116655.69944
  22984244.460       -2467.611          31.000    22984243.020

 106893228.090 8  20341100.880         522.321          52.000    83293429.41846
  20341100.980         406.996          43.000    20341099.900

 117332984.629 8  22327721.620        3369.856          51.000    91428294.87944
  22327719.560        2625.857          35.000    22327721.360

 124037281.309 6  23603510.640        3168.988          45.000    96652425.89843
  23603507.700        2469.332          26.000    23603510.500

 113942042.578 8  21682449.400        -511.591          51.000    88785999.87545
  21682449.560        -398.643          39.000    21682449.300

 205063235.613 7  39022235.360           3.136          46.000


 200999111.680 7  38248685.580           -.265          47.000


 127630090.145 5  23834018.340       -4217.472          40.000    99267845.063 5
                     -3280.270          38.000                    23834013.640

 117417179.988 7  21965304.460       -2403.997          48.000    91324447.812 6
                     -1869.813          45.000                    21965299.000

 121315983.027 5  22734562.540        1425.044          40.000


 123453819.363 5  23118930.900       -3270.360          38.000    96019636.859 5
                     -2543.654          37.000                    23118926.900

 105459597.352 8  19783947.540       -1148.182          54.000    82024135.902 7
                      -893.059          50.000                    19783942.700

 106097971.410 7  19854782.280        1451.938          49.000    82520647.336 6
                      1129.265          42.000                    19854778.580

 117019535.523 7  21867899.060        4172.894          46.000    91015214.273 6
                      3245.534          43.000                    21867893.440

 115350447.738 7  21563542.240       -2652.218          49.000    89717009.730 5
                     -2062.869          38.000                    21563538.440

 107512847.660 7  20105442.160        1100.393          46.000    83621106.293 5
                       855.829          38.000                    20105435.860

 100233271.520 6  19073756.200       -5122.275          41.000

  74849521.555 6  19073767.980       -3825.090          42.000
 136921035.078 6  26055205.860        -267.886          41.000

 102246225.738 5  26055211.720        -200.060          39.000
 135617663.039 6  25807182.700        2068.247          45.000

 101272932.645 6  25807189.660        1544.448          44.000
 121659394.598 7  23151011.280          79.663          49.000

  90849549.645 8  23151018.400          59.462          51.000
 124709294.348 7  23731389.880       -1947.796          47.000

  93127070.820 7  23731397.700       -1454.558          47.000
 18 10 12  1  5 45.0000000  0 26G02G06G12G14G19G24G25G29G31G32S23S36
                                R04R05R06R13R14R15R17R23R24E18E19E21
                                E27E30
 124803658.566 6  23749346.120        1553.104          45.000    97249605.18843
  23749341.560        1210.205          28.000    23749345.280

 125779717.020 6  23935081.940        -263.773          43.000    98010181.07842
  23935082.440        -205.563          22.000    23935081.800

 109463361.137 8  20830180.800       -1996.839          52.000    85296132.35245
  20830177.920       -1555.980          40.000    20830180.500

 117242834.180 7  22310567.700        1348.162          48.000    91358045.16044
  22310564.880        1050.515          31.000    22310566.960

 130781960.078 6  24886976.420       -3712.492          41.000   101908018.93842
  24886971.980       -2892.861          22.000    24886975.140

 120830561.254 7  22993287.320       -3170.219          47.000    94153689.27744
  22993288.440       -2470.304          32.000    22993287.000

 106885442.777 8  20339619.380         515.624          52.000    83287362.93846
  20339619.480         401.784          43.000    20339618.400

 117282472.883 7  22318109.540        3364.917          50.000    91388935.08244
  22318107.500        2622.013          35.000    22318109.300

 123989759.801 7  23594467.600        3167.078          46.000    96615396.16843
  23594464.660        2467.861          27.000    23594467.440

 113949790.699 8  21683923.820        -521.645          51.000    88792037.37945
  21683923.980        -406.474          39.000    21683923.720

 205063187.254 7  39022226.100           3.288          46.000


 200999112.859 7  38248685.900            .005          46.000


 127693355.176 6  23845832.660       -4218.008          41.000    99317051.195 5
                     -3280.672          38.000                    23845827.940

 117453317.418 7  21972064.740       -2414.390          47.000    91352554.691 6
                     -1877.834          44.000                    21972059.280

 121294698.754 5  22730573.880        1412.834          40.000


 123502891.402 5  23128120.520       -3272.677          39.000    96057804.004 5
                     -2545.408          36.000                    23128116.520

 105476867.270 8  19787187.340       -1154.564          54.000    82037568.063 7
                      -898.004          50.000                    19787182.500

 106076232.566 7  19850714.160        1446.448          49.000    82503739.344 6
                      1125.017          42.000                    19850710.440

 116956981.926 7  21856209.420        4167.537          47.000    90966561.484 6
                      3241.428          44.000                    21856203.800

 115390311.125 7  21570994.280       -2663.015          48.000    89748014.605 5
                     -2071.220          39.000                    21570990.480

 107496444.617 7  20102374.700        1086.548          46.000    83608348.379 5
                       845.118          37.000                    20102368.420

 100310216.328 6  19088398.260       -5137.166          41.000

  74906980.344 6  19088410.040       -3836.192          42.000
 136925106.953 5  26055980.720        -275.053          40.000

 102249266.418 5  26055986.580        -205.393          39.000
 135586648.395 6  25801280.800        2066.911          45.000

 101249772.359 6  25801287.760        1543.473          44.000
 121658221.754 7  23150788.100          76.563          48.000

  90848673.820 8  23150795.200          57.176          51.000
 124738523.598 7  23736952.160       -1949.584          48.000

  93148897.836 7  23736959.980       -1455.854          47.000
 18 10 12  1  6  0.0000000  0 26G02G06G12G14G19G24G25G29G31G32S23S36
                                R04R05R06R13R14R15R17R23R24E18E19E21
                                E27E30
 124780410.437 6  23744922.140        1546.756          45.000    97231489.78543
  23744917.580        1205.257          28.000    23744921.300

 125783745.711 6  23935848.580        -273.306          43.000    98013320.32042
  23935849.080        -212.975          23.000    23935848.440

 109493351.105 8  20835887.700       -2001.713          51.000    85319501.15645
  20835884.820       -1559.779          40.000    20835887.400

 117222677.973 7  22306732.100        1339.415          47.000    91342339.02744
  22306729.300        1043.706          31.000    22306731.360

 130837670.027 6  24897577.660       -3715.460          41.000   101951429.29742
  24897573.220       -2895.173          23.000    24897576.380

 120878140.695 7  23002341.400       -3173.622          47.000    94190764.16844
  23002342.520       -2472.956          32.000    23002341.060

 106877759.781 8  20338157.360         508.942          52.000    83281376.19146
  20338157.460         396.580          43.000    20338156.360

 117232036.820 8  22308511.880        3359.993          51.000    91349634.24644
  22308509.820        2618.180          34.000    22308511.640

 123942268.707 7  23585430.340        3165.151          46.000    96578390.10243
  23585427.380        2466.348          28.000    23585430.200

 113957690.898 8  21685427.200        -531.663          51.000    88798193.36745
  21685427.340        -414.285          39.000    21685427.100

 205063138.922 7  39022216.840           3.339          46.000


 200999114.605 7  38248686.320           -.012          46.000


 127756628.812 6  23857648.560       -4218.384          41.000    99366264.031 5
                     -3280.956          38.000                    23857643.840

 117489611.562 7  21978854.320       -2424.734          48.000    91380783.469 6
                     -1885.912          44.000                    21978848.840

 121273601.016 5  22726620.180        1400.405          39.000


 123552000.578 5  23137317.080       -3275.033          38.000    96096000.023 4
                     -2547.273          34.000                    23137313.120

 105494234.437 8  19790445.380       -1160.977          54.000    82051075.859 8
                      -902.980          51.000                    19790440.540

 106054578.687 7  19846661.920        1440.830          50.000    82486897.453 6
                      1120.627          42.000                    19846658.220

 116894510.605 7  21844535.160        4162.123          46.000    90917972.680 6
                      3237.208          44.000                    21844529.540

 115430338.074 7  21578476.880       -2673.809          47.000    89779146.668 5
                     -2079.601          39.000                    21578473.080

 107480251.926 7  20099346.580        1072.552          46.000    83595754.066 5
                       834.203          37.000                    20099340.300

 100387385.207 6  19103083.020       -5151.927          41.000

  74964606.449 6  19103094.780       -3847.210          43.000
 136929288.758 5  26056776.480        -282.329          40.000

 102252389.188 5  26056782.360        -210.842          39.000
 135555655.332 6  25795383.020        2065.592          45.000

 101226628.195 6  25795389.960        1542.481          44.000
 121657097.555 7  23150574.160          73.441          48.000

  90847834.316 8  23150581.260          54.845          51.000
 124767781.500 7  23742519.960       -1951.378          48.000

  93170746.258 7  23742527.640       -1457.203          47.000
 18 10 12  1  6 15.0000000  0 26G02G06G12G14G19G24G25G29G31G32S23S36
                                R04R05R06R13R14R15R17R23R24E18E19E21
                                E27E30
 124757259.738 6  23740516.700        1540.086          45.000    97213450.28943
  23740512.140        1200.067          28.000    23740515.860

 125787918.602 6  23936642.640        -282.985          43.000    98016571.93842
  23936643.140        -220.515          23.000    23936642.500

 109523415.793 8  20841608.820       -2006.838          51.000    85342928.18045
  20841605.940       -1563.770          39.000    20841608.500

 117202655.062 7  22302921.880        1330.432          47.000    91326736.75844
  22302919.060        1036.697          31.000    22302921.140

 130893426.371 6  24908187.740       -3718.644          42.000   101994875.80942
  24908183.300       -2897.678          21.000    24908186.460

 120925772.871 7  23011405.500       -3177.242          47.000    94227880.12544
  23011406.620       -2475.773          32.000    23011405.180

 106870178.812 8  20336714.740         501.998          52.000    83275468.94546
  20336714.840         391.164          43.000    20336713.760

 117181676.445 8  22298928.620        3354.817          51.000    91310392.41444
  22298926.560        2614.142          35.000    22298928.380

 123894807.777 7  23576398.840        3163.015          46.000    96541407.56243
  23576395.880        2464.682          27.000    23576398.700

 113965742.801 8  21686959.420        -541.938          51.000    88804467.57445
  21686959.580        -422.297          39.000    21686959.320

 205063090.195 7  39022207.540           3.168          46.000


 200999118.844 7  38248687.180           -.472          46.000


 127819910.086 6  23869465.900       -4219.012          41.000    99415482.820 5
                     -3281.470          38.000                    23869461.160

 117526061.895 7  21985673.120       -2435.199          47.000    91409133.734 6
                     -1894.064          44.000                    21985667.640

 121252689.758 5  22722701.380        1387.833          39.000


 123601146.039 5  23146520.460       -3277.606          39.000    96134224.262 4
                     -2549.186          34.000                    23146516.480

 105511698.594 8  19793721.620       -1167.546          54.000    82064659.090 7
                      -908.103          50.000                    19793716.760

 106033009.227 7  19842625.500        1435.193          49.000    82470121.203 6
                      1116.255          42.000                    19842621.780

 116832121.992 7  21832876.340        4156.509          47.000    90869448.199 6
                      3232.827          44.000                    21832870.720

 115470528.016 7  21585989.960       -2684.742          47.000    89810405.492 5
                     -2088.129          40.000                    21585986.160

 107464269.586 7  20096357.800        1058.507          46.000    83583323.371 5
                       823.280          38.000                    20096351.520

 100464776.797 6  19117810.220       -5166.890          43.000

  75022398.875 6  19117821.980       -3858.388          43.000
 136933580.172 5  26057593.120        -289.696          40.000

 102255593.816 5  26057599.000        -216.344          40.000
 135524683.625 7  25789489.280        2064.049          46.000

 101203499.977 6  25789496.220        1541.326          44.000
 121656021.715 7  23150369.440          70.051          48.000

  90847030.934 8  23150376.540          52.297          51.000
 124797067.695 7  23748093.100       -1953.404          48.000

  93192615.809 7  23748100.640       -1458.719          47.000
 18 10 12  1  6 30.0000000  0 26G02G06G12G14G19G24G25G29G31G32S23S36
                                R04R05R06R13R14R15R17R23R24E18E19E21
                                E27E30
 124734206.520 6  23736129.820        1533.645          45.000    97195486.75443
  23736125.260        1195.048          28.000    23736128.980

 125792235.508 6  23937464.120        -292.587          43.000    98019935.76642
  23937464.620        -227.987          23.000    23937463.980

 109553555.062 8  20847344.120       -2011.760          52.000    85366413.32045
  20847341.260       -1567.604          39.000    20847343.820

 117182765.223 7  22299136.960        1321.558          47.000    91311238.17644
  22299134.160        1029.790          31.000    22299136.220

 130949228.469 6  24918806.520       -3721.638          41.000   102038358.01241
  24918802.080       -2899.970          19.000    24918805.240

 120973456.883 7  23020479.460       -3180.622          46.000    94265036.46944
  23020480.600       -2478.408          31.000    23020479.140

 106862699.617 8  20335291.500         495.269          52.000    83269640.99246
  20335291.600         385.927          43.000    20335290.500

 117131391.629 8  22289359.740        3349.805          51.000    91271209.44144
  22289357.680        2610.242          35.000    22289359.500

 123847376.883 7  23567373.040        3161.028          46.000    96504448.42243
  23567370.080        2463.148          27.000    23567372.900

 113973946.070 8  21688520.460        -551.910          51.000    88810859.72745
  21688520.620        -430.056          39.000    21688520.360

 205063041.266 7  39022198.220           3.269          46.000


 200999125.137 7  38248688.160           -.248          46.000


 127883198.289 5  23881284.520       -4219.475          40.000    99464706.984 5
                     -3281.820          38.000                    23881279.800

 117562667.629 7  21992520.980       -2445.561          48.000    91437604.832 6
                     -1902.095          44.000                    21992515.500

 121231965.090 5  22718817.560        1375.432          39.000


 123650327.551 5  23155730.580       -3279.981          40.000    96172476.555 4
                     -2551.094          33.000                    23155726.620

 105529259.516 8  19797016.000       -1173.945          54.000    82078317.590 8
                      -913.061          51.000                    19797011.140

 106011523.824 7  19838604.800        1429.517          49.000    82453410.324 6
                      1111.862          42.000                    19838601.080

 116769816.234 7  21821233.020        4150.942          47.000    90820988.195 6
                      3228.505          44.000                    21821227.400

 115510880.070 7  21593533.340       -2695.533          48.000    89841790.418 6
                     -2096.508          41.000                    21593529.560

 107448497.465 7  20093408.320        1044.491          46.000    83571056.176 5
                       812.402          38.000                    20093402.060

 100542389.840 6  19132579.640       -5181.566          43.000

  75080356.656 6  19132591.320       -3869.327          44.000
 136937980.918 5  26058430.540        -296.951          40.000

 102258880.078 5  26058436.460        -221.724          39.000
 135493733.027 6  25783599.580        2062.673          45.000

 101180387.520 6  25783606.560        1540.328          44.000
 121654994.043 7  23150173.900          66.934          48.000

  90846263.512 8  23150180.960          50.005          51.000
 124826381.945 7  23753671.500       -1955.190          48.000

  93214506.301 7  23753678.940       -1460.030          47.000
 18 10 12  1  6 45.0000000  0 26G02G06G12G14G19G24G25G29G31G32S23S36
                                R04R05R06R13R14R15R17R23R24E18E19E21
                                E27E30
 124711251.609 6  23731761.640        1526.834          45.000    97177599.81643
  23731757.060        1189.727          27.000    23731760.800

 125796696.820 6  23938313.080        -302.480          43.000    98023412.12142
  23938313.560        -235.737          21.000    23938312.940

 109583769.090 8  20853093.660       -2016.935          52.000    85389956.71945
  20853090.800       -1571.639          39.000    20853093.360

 117163009.156 7  22295377.520        1312.411          47.000    91295843.84044
  22295374.700        1022.645          31.000    22295376.780

 131005076.312 5  24929434.000       -3724.925          40.000   102081875.89141
  24929429.580       -2902.585          18.000    24929432.740

 121021193.340 7  23029563.400       -3184.338          47.000    94302233.69144
  23029564.540       -2481.307          31.000    23029563.080

 106855322.562 8  20333887.680         488.167          52.000    83263892.64846
  20333887.780         380.385          43.000    20333886.700

 117081183.301 8  22279805.420        3344.482          51.000    91232086.06644
  22279803.340        2606.081          35.000    22279805.180

 123799976.828 7  23558353.100        3158.792          46.000    96467513.32043
  23558350.140        2461.395          28.000    23558352.960

 113982301.066 8  21690110.380        -562.263          51.000    88817370.10945
  21690110.540        -438.133          39.000    21690110.260

 205062992.551 6  39022188.940           3.048          45.000


 200999125.465 7  38248687.960           -.168          46.000


 127946493.445 5  23893104.440       -4220.122          39.000    99513936.598 5
                     -3282.350          37.000                    23893099.700

 117599428.680 7  21999397.900       -2456.103          48.000    91466196.738 6
                     -1910.326          45.000                    21999392.440

 121211427.289 5  22714968.600        1362.740          39.000


 123699545.496 5  23164947.540       -3282.635          39.000    96210757.176 4
                     -2553.194          34.000                    23164943.560

 105546917.809 8  19800328.660       -1180.641          54.000    82092051.805 8
                      -918.293          51.000                    19800323.780

 105990123.816 7  19834600.080        1423.658          49.000    82436765.871 6
                      1107.247          42.000                    19834596.360

 116707594.391 7  21809605.380        4145.095          47.000    90772593.422 6
                      3223.942          44.000                    21809599.740

 115551394.438 7  21601107.080       -2706.538          48.000    89873301.590 5
                     -2105.126          40.000                    21601103.300

 107432935.809 6  20090498.200        1030.236          45.000    83558952.668 5
                       801.246          38.000                    20090491.960

 100620223.691 6  19147390.980       -5196.431          42.000

  75138479.344 6  19147402.660       -3880.481          44.000
 136942491.395 5  26059288.820        -304.565          40.000

 102262248.289 5  26059294.740        -227.469          39.000
 135462804.023 6  25777713.980        2061.022          45.000

 101157291.184 6  25777720.920        1539.034          44.000
 121654014.953 7  23149987.600          63.459          48.000

  90845532.371 8  23149994.640          47.354          51.000
 124855724.652 7  23759255.240       -1957.348          47.000

  93236418.055 7  23759262.620       -1461.694          47.000
 18 10 12  1  7  0.0000000  0 26G02G06G12G14G19G24G25G29G31G32S23S36
                                R04R05R06R13R14R15R17R23R24E18E19E21
                                E27E30
 124688394.898 6  23727412.140        1520.506          45.000    97159789.39843
  23727407.560        1184.810          27.000    23727411.300

 125801302.426 6  23939189.500        -311.817          43.000    98027000.88742
  23939189.980        -242.966          22.000    23939189.360

 109614057.562 8  20858857.360       -2021.721          52.000    85413558.12145
  20858854.500       -1575.369          40.000    20858857.060

 117143386.941 7  22291643.540        1303.708          47.000    91280553.80144
  22291640.720        1015.878          31.000    22291642.800

 131060969.590 5  24940070.140       -3727.747          38.000   102125429.09841
  24940065.700       -2904.762          17.000    24940068.860

 121068982.117 7  23038657.300       -3187.667          48.000    94339471.69944
  23038658.460       -2483.895          32.000    23038657.000

 106848047.469 8  20332503.280         481.606          52.000    83258223.74646
  20332503.380         375.276          43.000    20332502.300

 117031051.629 8  22270265.680        3339.544          51.000    91193022.43444
  22270263.600        2602.234          35.000    22270265.440

 123752607.734 7  23549339.080        3156.899          47.000    96430602.34843
  23549336.120        2459.919          28.000    23549338.920

 113990807.508 7  21691729.100        -572.157          50.000    88823998.50045
  21691729.260        -445.840          39.000    21691729.000

 205062943.988 7  39022179.680           3.193          46.000


 200999124.582 7  38248687.640            .220          46.000


 128009794.906 5  23904925.520       -4220.246          38.000    99563171.047 5
                     -3282.412          36.000                    23904920.800

 117636344.500 7  22006303.780       -2466.177          47.000    91494909.047 6
                     -1918.153          44.000                    22006298.320

 121191076.629 5  22711154.680        1350.466          39.000


 123748799.656 5  23174171.260       -3284.783          39.000    96249065.949 4
                     -2554.850          35.000                    23174167.300

 105564673.145 8  19803659.520       -1186.880          54.000    82105861.527 8
                      -923.137          51.000                    19803654.640

 105968808.840 7  19830611.260        1418.188          50.000    82420187.566 6
                      1103.034          42.000                    19830607.560

 116645456.781 7  21797993.480        4139.716          46.000    90724264.172 6
                      3219.790          44.000                    21797987.840

 115592070.352 7  21608711.020       -2717.109          48.000    89904938.402 5
                     -2113.316          40.000                    21608707.240

 107417584.949 7  20087627.500        1016.365          46.000    83547013.137 5
                       790.485          37.000                    20087621.260

 100698277.188 6  19162244.060       -5210.833          41.000

  75196766.031 6  19162255.800       -3891.231          43.000
 136947111.367 5  26060167.940        -311.618          40.000

 102265698.273 5  26060173.920        -232.742          39.000
 135431896.488 6  25771832.460        2059.756          45.000

 101134210.895 6  25771839.460        1538.118          44.000
 121653084.312 7  23149810.520          60.414          48.000

  90844837.418 8  23149817.540          45.091          51.000
 124885095.652 7  23764844.320       -1959.005          47.000

  93258350.945 7  23764851.640       -1462.916          47.000
 18 10 12  1  7 15.0000000  0 26G02G06G12G14G19G24G25G29G31G32S23S36
                                R04R05R06R13R14R15R17R23R24E18E19E21
                                E27E30
 124665636.656 6  23723081.380        1513.882          44.000    97142055.69542
  23723076.800        1179.621          25.000    23723080.540

 125806052.285 6  23940093.360        -321.549          43.000    98030702.06642
  23940093.840        -250.553          23.000    23940093.220

 109644419.988 8  20864635.140       -2026.691          52.000    85437217.15245
  20864632.280       -1579.247          40.000    20864634.840

 117123898.852 7  22287935.080        1294.676          47.000    91265368.27344
  22287932.260        1008.838          31.000    22287934.340

 131116907.957 5  24950714.860       -3730.773          38.000   102169017.41841
  24950710.400       -2907.088          18.000    24950713.580

 121116822.926 7  23047761.120       -3191.194          48.000    94376750.25444
  23047762.260       -2486.643          31.000    23047760.800

 106840874.340 8  20331138.280         474.756          52.000    83252634.28946
  20331138.380         369.937          43.000    20331137.280

 116980996.855 8  22260740.580        3334.343          51.000    91154018.71144
  22260738.500        2598.193          35.000    22260740.320

 123705269.699 7  23540330.940        3154.793          46.000    96393715.56643
  23540328.000        2458.276          27.000    23540330.800

 113999465.355 8  21693376.640        -582.293          51.000    88830744.87545
  21693376.800        -453.741          39.000    21693376.540

 205062895.770 7  39022170.480           3.142          46.000


 200999122.109 7  38248687.180            .026          46.000


 128073102.168 5  23916747.700       -4220.759          37.000    99612410.070 4
                     -3282.821          35.000                    23916742.980

 117673414.609 7  22013238.520       -2476.504          47.000    91523741.355 6
                     -1926.190          45.000                    22013233.060

 121170913.504 5  22707376.060        1337.910          39.000


 123798090.137 5  23183401.800       -3287.286          39.000    96287402.965 5
                     -2556.789          36.000                    23183397.840

 105582525.594 8  19807008.600       -1193.459          54.000    82119746.762 8
                      -928.266          51.000                    19807003.720

 105947579.098 7  19826638.400        1412.436          49.000    82403675.539 6
                      1098.522          42.000                    19826634.700

 116583403.988 7  21786397.420        4133.929          47.000    90676000.910 6
                      3215.265          44.000                    21786391.800

 115632907.320 7  21616345.060       -2727.879          49.000    89936700.492 5
                     -2121.685          40.000                    21616341.280

 107402445.055 7  20084796.260        1002.226          46.000    83535237.668 5
                       779.472          38.000                    20084790.040

 100776549.293 5  19177138.680       -5225.506          40.000

  75255215.961 6  19177150.420       -3902.174          42.000
 136951840.848 5  26061067.920        -318.950          40.000

 102269230.023 5  26061073.940        -238.183          39.000
 135401010.457 6  25765955.000        2058.288          45.000

 101111146.656 6  25765962.020        1537.029          44.000
 121652202.168 7  23149642.640          57.149          48.000

  90844178.676 8  23149649.660          42.657          51.000
 124914494.941 7  23770438.720       -1960.935          47.000

  93280304.957 7  23770446.020       -1464.351          46.000
 18 10 12  1  7 30.0000000  0 26G02G06G12G14G19G24G25G29G31G32S23S36
                                R04R05R06R13R14R15R17R23R24E18E19E21
                                E27E30
 124642976.988 6  23718769.380        1507.280          45.000    97124398.82842
  23718764.780        1174.500          25.000    23718768.540

 125810946.238 6  23941024.640        -331.167          43.000    98034515.55142
  23941025.120        -258.043          22.000    23941024.500

 109674856.527 8  20870427.020       -2031.657          52.000    85460933.93745
  20870424.160       -1583.114          40.000    20870426.720

 117104544.836 7  22284252.140        1285.714          47.000    91250287.21544
  22284249.320        1001.849          31.000    22284251.400

 131172890.844 5  24961368.040       -3733.807          39.000   102212640.43742
  24961363.600       -2909.455          21.000    24961366.760

 121164715.516 7  23056874.780       -3194.708          49.000    94414069.16844
  23056875.920       -2489.391          32.000    23056874.460

 106833802.980 8  20329792.640         467.895          52.000    83247124.14146
  20329792.740         364.591          43.000    20329791.660

 116931019.078 8  22251230.120        3329.183          51.000    91115075.00444
  22251228.040        2594.165          35.000    22251229.880

 123657962.895 7  23531328.760        3152.640          46.000    96356853.12543
  23531325.820        2456.602          28.000    23531328.620

 114008274.355 8  21695052.940        -592.385          51.000    88837609.02345
  21695053.100        -461.602          39.000    21695052.840

 205062847.387 6  39022161.240           3.190          45.000


 200999122.344 7  38248687.280            .052          46.000


 128136414.297 5  23928570.800       -4221.151          37.000    99661652.824 4
                     -3283.174          34.000                    23928566.060

 117710638.281 7  22020201.980       -2486.787          47.000    91552693.078 6
                     -1934.190          44.000                    22020196.520

 121150937.926 5  22703632.880        1325.380          39.000


 123847416.105 5  23192638.980       -3289.621          39.000    96325767.594 5
                     -2558.609          36.000                    23192635.020

 105600474.898 8  19810375.840       -1199.974          54.000    82133707.320 8
                      -933.343          51.000                    19810370.960

 105926434.609 7  19822681.500        1406.693          50.000    82387229.828 6
                      1094.070          42.000                    19822677.800

 116521436.383 7  21774817.300        4128.219          47.000    90627803.902 6
                      3210.821          44.000                    21774811.660

 115673904.770 7  21624009.120       -2738.623          48.000    89968587.391 5
                     -2130.059          39.000                    21624005.320

 107387515.980 7  20082004.440         988.137          46.000    83523626.164 5
                       768.520          37.000                    20081998.220

 100855038.773 6  19192074.700       -5239.937          41.000

  75313828.223 6  19192086.400       -3912.976          41.000
 136956679.613 5  26061988.680        -326.314          40.000

 102272843.379 5  26061994.760        -243.664          39.000
 135370145.832 6  25760081.640        2056.806          45.000

 101088098.398 6  25760088.700        1535.891          44.000
 121651368.379 7  23149484.000          53.878          48.000

  90843556.031 8  23149491.000          40.216          51.000
 124943922.336 7  23776038.440       -1962.861          47.000

  93302279.945 7  23776045.720       -1465.797          46.000
 18 10 12  1  7 45.0000000  0 26G02G06G12G14G19G24G25G29G31G32S23S36
                                R04R05R06R13R14R15R17R23R24E18E19E21
                                E27E30
 124620416.363 6  23714476.220        1500.827          45.000    97106819.10542
  23714471.620        1169.484          25.000    23714475.400

 125815984.520 6  23941983.380        -340.566          43.000    98038441.49242
  23941983.880        -265.371          23.000    23941983.260

 109705367.051 8  20876233.000       -2036.380          52.000    85484708.37145
  20876230.120       -1586.794          40.000    20876232.680

 117085325.215 7  22280594.760        1276.912          47.000    91235310.88744
  22280591.960         994.992          31.000    22280594.020

 131228918.023 6  24972029.640       -3736.484          41.000   102256297.96542
  24972025.200       -2911.544          22.000    24972028.380

 121212659.852 7  23065998.300       -3197.974          48.000    94451428.39844
  23065999.440       -2491.927          33.000    23065997.980

 106826833.566 8  20328466.400         461.343          52.000    83241693.43046
  20328466.500         359.490          43.000    20328465.420

 116881118.742 7  22241734.400        3324.216          50.000    91076191.62945
  22241732.320        2590.302          36.000    22241734.160

 123610687.605 7  23522332.580        3150.722          47.000    96320015.23443
  23522329.620        2455.109          28.000    23522332.440

 114017234.621 7  21696758.040        -602.271          50.000    88844591.03545
  21696758.180        -469.299          38.000    21696757.920

 205062798.836 6  39022151.980           3.374          45.000


 200999122.215 7  38248687.360            .245          46.000


 128199731.254 4  23940394.780       -4221.273          34.000


 117748015.258 7  22027194.120       -2496.757          47.000    91581764.070 6
                     -1941.916          44.000                    22027188.680

 121131150.172 5  22699924.520        1313.150          38.000


 123896778.449 5  23201882.960       -3291.951          39.000    96364160.512 4
                     -2560.355          35.000                    23201879.000

 105618521.395 8  19813761.320       -1206.181          53.000    82147743.480 8
                      -938.130          51.000                    19813756.440

 105905375.398 7  19818740.560        1401.216          49.000    82370850.449 6
                      1089.837          42.000                    19818736.860

 116459554.664 7  21763253.200        4122.690          48.000    90579673.660 6
                      3206.539          45.000                    21763247.560

 115715062.473 7  21631703.120       -2749.092          48.000    90000598.965 5
                     -2138.161          39.000                    21631699.320

 107372798.426 7  20079252.180         974.269          46.000    83512179.188 5
                       757.761          37.000                    20079245.960

 100933744.789 6  19207052.040       -5254.168          42.000

  75372602.215 6  19207063.560       -3923.550          41.000
 136961627.809 5  26062930.260        -333.459          40.000

 102276538.465 5  26062936.400        -249.027          40.000
 135339302.828 7  25754212.380        2055.595          46.000

 101065066.289 6  25754219.420        1535.023          44.000
 121650583.148 7  23149334.560          50.818          48.000

  90842969.660 8  23149341.560          37.956          51.000
 124973378.004 7  23781643.580       -1964.570          47.000

  93324276.059 7  23781650.840       -1467.030          46.000
 18 10 12  1  8  0.0000000  0 25G02G06G12G14G19G24G25G29G31G32S23S36
                                R05R06R13R14R15R17R23R24E18E19E21E27
                                E30
 124597954.695 6  23710201.900        1494.113          44.000    97089316.50042
  23710197.280        1164.247          24.000    23710201.060

 125821166.645 6  23942969.520        -350.285          43.000    98042479.51642
  23942969.980        -272.951          22.000    23942969.380

 109735950.973 8  20882052.920       -2041.391          52.000    85508540.00445
  20882050.060       -1590.693          40.000    20882052.620

 117066239.750 7  22276962.920        1267.892          47.000    91220439.09844
  22276960.120         987.973          31.000    22276962.180

 131284988.781 6  24982699.560       -3739.518          42.000   102299989.45742
  24982695.100       -2913.905          24.000    24982698.280

 121260655.539 7  23075131.580       -3201.449          48.000    94488827.64844
  23075132.720       -2494.631          33.000    23075131.260

 106819965.613 8  20327159.480         454.458          52.000    83236341.77746
  20327159.580         354.124          43.000    20327158.480

 116831295.898 8  22232253.420        3318.917          51.000    91037368.63744
  22232251.340        2586.165          35.000    22232253.180

 123563443.734 7  23513342.380        3148.530          46.000    96283201.82443
  23513339.420        2453.399          28.000    23513342.220

 114026345.609 7  21698491.800        -612.466          50.000    88851690.51245
  21698491.960        -477.249          39.000    21698491.680

 205062749.727 6  39022142.620           3.258          45.000


 200999120.969 7  38248687.300           -.181          46.000


 117785544.602 7  22034214.760       -2507.003          47.000    91610953.531 6
                     -1949.871          44.000                    22034209.320

 121111549.801 5  22696251.280        1300.449          39.000


 123946176.160 5  23211133.580       -3294.377          39.000    96402580.941 4
                     -2562.300          35.000                    23211129.620

 105636664.520 8  19817164.900       -1212.803          53.000    82161854.789 8
                      -943.291          51.000                    19817160.060

 105884401.051 7  19814815.500        1395.395          49.000    82354537.059 6
                      1085.308          42.000                    19814811.800

 116397758.895 7  21751705.200        4116.778          47.000    90531610.305 6
                      3201.928          45.000                    21751699.540

 115756379.605 7  21639426.920       -2759.745          48.000    90032734.512 5
                     -2146.485          38.000                    21639423.120

 107358291.797 7  20076539.360         960.015          46.000    83500896.258 5
                       746.648          37.000                    20076533.140

 101012665.824 6  19222070.360       -5268.605          43.000

  75431536.777 6  19222081.680       -3934.354          41.000
 136966684.937 5  26063892.540        -340.829          40.000

 102280314.898 5  26063898.760        -254.519          40.000
 135308481.020 7  25748347.160        2054.033          46.000

 101042050.012 6  25748354.220        1533.865          44.000
 121649846.059 7  23149194.320          47.544          48.000

  90842419.242 8  23149201.300          35.506          51.000
 125002861.480 7  23787254.000       -1966.506          47.000

  93346292.934 7  23787261.260       -1468.487          46.000
 18 10 12  1  8 15.0000000  0 25G02G06G12G14G19G24G25G29G31G32S23S36
                                R05R06R13R14R15R17R23R24E18E19E21E27
                                E30
 124575592.707 6  23705946.540        1487.492          45.000    97071891.57443
  23705941.920        1159.076          26.000    23705945.720

 125826493.312 6  23943983.140        -359.889          43.000    98046630.17242
  23943983.620        -280.437          22.000    23943983.020

 109766608.637 8  20887886.880       -2046.295          52.000    85532429.09045
  20887884.020       -1594.525          40.000    20887886.580

 117047289.410 7  22273356.800        1258.851          47.000    91205672.60244
  22273353.980         980.916          31.000    22273356.060

 131341103.461 6  24993377.820       -3742.449          42.000   102343715.18042
  24993373.360       -2916.208          22.000    24993376.540

 121308702.766 7  23084274.680       -3204.879          48.000    94526267.04344
  23084275.800       -2497.318          34.000    23084274.340

 106813199.789 8  20325871.980         447.672          52.000    83231069.71146
  20325872.080         348.830          43.000    20325871.000

 116781551.531 8  22222787.380        3313.683          51.000    90998606.79744
  22222785.300        2582.086          35.000    22222787.140

 123516232.012 7  23504358.280        3146.365          46.000    96246413.46543
  23504355.340        2451.703          29.000    23504358.140

 114035607.938 7  21700254.360        -622.488          50.000    88858907.90245
  21700254.520        -485.061          38.000    21700254.260

 205062700.492 6  39022133.280           3.292          45.000


 200999121.891 7  38248687.680           -.080          46.000


 117823226.617 7  22041263.980       -2517.202          47.000    91640261.758 6
                     -1957.869          44.000                    22041258.540

 121092138.172 5  22692613.820        1287.898          39.000


 123995609.812 5  23220390.920       -3296.787          38.000    96441029.332 4
                     -2564.211          34.000                    23220386.980

 105654905.211 8  19820586.820       -1219.285          53.000    82176041.988 7
                      -948.360          50.000                    19820581.960

 105863513.227 7  19810906.620        1389.699          50.000    82338290.984 6
                      1080.837          42.000                    19810902.920

 116336050.324 7  21740173.460        4111.039          48.000    90483614.766 6
                      3197.428          45.000                    21740167.820

 115797856.309 7  21647180.520       -2770.427          47.000    90064994.199 5
                     -2154.824          39.000                    21647176.740

 107343997.094 7  20073866.180         945.898          47.000    83489778.160 5
                       735.646          37.000                    20073859.960

 101091801.555 6  19237129.500       -5282.837          42.000

  75490631.656 6  19237140.720       -3945.036          42.000
 136971851.680 5  26064875.680        -348.066          39.000

 102284173.172 5  26064881.980        -259.956          39.000
 135277681.188 6  25742486.160        2052.620          45.000

 101019050.137 6  25742493.180        1532.773          44.000
 121649157.797 7  23149063.360          44.286          48.000

  90841905.277 8  23149070.320          33.035          51.000
 125032373.453 7  23792869.880       -1968.379          47.000

  93368331.082 7  23792877.140       -1469.926          46.000
 18 10 12  1  8 30.0000000  0 25G02G06G12G14G19G24G25G29G31G32S23S36
                                R05R06R13R14R15R17R23R24E18E19E21E27
                                E30
 124553330.172 7  23701710.120        1480.769          46.000    97054544.15243
  23701705.480        1153.839          27.000    23701709.280

 125831964.027 6  23945024.180        -369.615          43.000    98050893.06642
  23945024.660        -288.024          21.000    23945024.040

 109797339.352 8  20893734.740       -2051.197          52.000    85556375.09445
  20893731.880       -1598.334          40.000    20893734.440

 117028473.824 7  22269776.300        1249.866          47.000    91191011.09044
  22269773.500         973.927          31.000    22269775.580

 131397261.160 6  25004064.280       -3745.325          42.000   102387474.44542
  25004059.820       -2918.446          22.000    25004063.000

 121356801.082 7  23093427.480       -3208.316          47.000    94563746.22344
  23093428.620       -2499.980          34.000    23093427.140

 106806535.617 8  20324603.840         440.835          53.000    83225876.84446
  20324603.920         343.511          43.000    20324602.840

 116731885.332 8  22213336.220        3308.414          51.000    90959905.87544
  22213334.140        2577.986          35.000    22213335.980

 123469052.062 7  23495380.240        3144.203          46.000    96209649.88343
  23495377.300        2450.029          28.000    23495380.080

 114045021.023 7  21702045.620        -632.606          50.000    88866242.76245
  21702045.780        -492.941          38.000    21702045.500

 205062651.457 7  39022123.980           3.194          46.000


 200999125.262 7  38248688.460           -.454          46.000


 117861060.395 7  22048341.560       -2527.327          47.000    91669688.016 6
                     -1965.671          44.000                    22048336.140

 121072914.762 5  22689011.180        1275.259          39.000


 124045079.156 5  23229654.940       -3299.108          40.000    96479505.465 4
                     -2565.947          34.000                    23229651.000

 105673242.672 8  19824026.860       -1225.773          53.000    82190304.438 7
                      -953.382          50.000                    19824022.040

 105842710.457 7  19807013.660        1383.947          50.000    82322111.039 6
                      1076.400          42.000                    19807009.960

 116274429.039 7  21728658.040        4105.124          48.000    90435687.082 6
                      3192.895          45.000                    21728652.400

 115839491.699 7  21654963.800       -2780.989          47.000    90097377.262 5
                     -2163.027          38.000                    21654960.020

 107329913.980 7  20071232.580         931.826          47.000    83478824.605 5
                       724.772          37.000                    20071226.320

 101171150.437 6  19252229.100       -5297.073          42.000

  75549885.680 6  19252240.360       -3955.611          43.000
 136977127.484 5  26065879.580        -355.401          40.000

 102288112.883 5  26065885.940        -265.403          39.000
 135246902.852 6  25736629.200        2051.171          45.000

 100996066.312 6  25736636.240        1531.725          44.000
 121648517.934 7  23148941.580          40.985          48.000

  90841427.453 8  23148948.560          30.607          51.000
 125061913.414 7  23798491.160       -1970.296          47.000

  93390390.129 7  23798498.420       -1471.320          47.000
 18 10 12  1  8 45.0000000  0 25G02G06G12G14G19G24G25G29G31G32S23S36
                                R05R06R13R14R15R17R23R24E18E19E21E27
                                E30
 124531167.812 7  23697492.760        1474.168          46.000    97037274.79743
  23697488.100        1148.694          28.000    23697491.920

 125837579.094 6  23946092.680        -379.132          43.000    98055268.45342
  23946093.160        -295.450          21.000    23946092.560

 109828143.324 8  20899596.540       -2056.014          51.000    85580378.18845
  20899593.680       -1602.095          40.000    20899596.240

 117009793.359 7  22266221.540        1240.866          47.000    91176454.88344
  22266218.720         966.901          31.000    22266220.800

 131453461.906 6  25014758.920       -3748.130          41.000   102431267.26241
  25014754.460       -2920.643          17.000    25014757.640

 121404950.355 7  23102589.980       -3211.607          47.000    94601265.12544
  23102591.120       -2502.555          34.000    23102589.660

 106799973.340 8  20323355.080         434.114          53.000    83220763.38346
  20323355.160         338.265          44.000    20323354.080

 116682298.012 7  22203900.060        3303.200          50.000    90921266.41844
  22203897.980        2573.917          35.000    22203899.820

 123421904.848 7  23486408.420        3142.088          46.000    96172911.80543
  23486405.480        2448.371          28.000    23486408.280

 114054585.062 7  21703865.600        -642.645          50.000    88873695.26245
  21703865.760        -500.768          38.000    21703865.480

 205062602.625 7  39022114.740           3.213          46.000


 200999127.555 7  38248688.900           -.352          46.000


 117899045.613 7  22055447.500       -2537.371          47.000    91699232.086 6
                     -1973.530          43.000                    22055442.060

 121053880.148 5  22685444.120        1262.726          39.000


 124094583.938 5  23238925.600       -3301.515          39.000    96518009.184 4
                     -2567.907          34.000                    23238921.660

 105691677.316 8  19827485.160       -1232.227          53.000    82204642.496 8
                      -958.426          51.000                    19827480.340

 105821994.703 7  19803137.000        1378.194          50.000    82305998.789 6
                      1071.888          42.000                    19803133.300

 116212895.836 7  21717159.100        4099.269          48.000    90387827.953 6
                      3188.285          45.000                    21717153.460

 115881285.668 7  21662776.740       -2791.544          47.000    90129883.711 5
                     -2171.261          39.000                    21662772.960

 107316042.832 7  20068638.600         917.659          47.000    83468035.957 5
                       713.690          37.000                    20068632.340

 101250711.785 5  19267369.060       -5311.085          40.000

  75609298.359 6  19267380.440       -3966.089          43.000
 136982512.625 5  26066904.300        -362.665          40.000

 102292134.250 5  26066910.720        -270.881          39.000
 135216146.379 6  25730776.440        2049.705          45.000

 100973098.820 6  25730783.500        1530.582          44.000
 121647926.781 7  23148829.080          37.793          48.000

  90840986.016 8  23148836.060          28.177          51.000
 125091481.629 7  23804117.880       -1972.164          47.000

  93412470.293 7  23804125.140       -1472.766          47.000
 18 10 12  1  9  0.0000000  0 25G02G06G12G14G19G24G25G29G31G32S23S36
                                R05R06R13R14R15R17R23R24E18E19E21E27
                                E30
 124509105.559 7  23693294.440        1467.481          46.000    97020083.43843
  23693289.800        1143.494          28.000    23693293.620

 125843338.246 6  23947188.600        -388.757          42.000    98059756.10542
  23947189.080        -302.907          22.000    23947188.480

 109859020.016 8  20905472.180       -2060.874          52.000    85604437.94145
  20905469.320       -1605.880          40.000    20905471.880

 116991248.066 7  22262692.480        1231.855          47.000    91162004.00444
  22262689.680         959.889          31.000    22262691.760

 131509705.188 5  25025461.660       -3751.045          38.000   102475093.16040
  25025457.180       -2922.888          12.000

 121453150.410 7  23111762.140       -3215.017          46.000    94638823.55944
  23111763.300       -2505.208          34.000    23111761.820

 106793512.676 8  20322125.640         427.323          53.000    83215729.09846
  20322125.740         332.974          43.000    20322124.660

 116632789.547 7  22194478.920        3297.915          50.000    90882688.39844
  22194476.840        2569.791          35.000    22194478.680

 123374789.957 7  23477442.760        3139.931          46.000    96136198.89843
  23477439.820        2446.719          28.000    23477442.600

 114064299.727 7  21705714.240        -652.648          50.000    88881265.12545
  21705714.420        -508.559          38.000    21705714.120

 205062553.914 6  39022105.460           3.300          45.000


 200999128.633 7  38248689.080           -.028          46.000


 117937181.527 7  22062581.620       -2547.410          47.000    91728893.320 6
                     -1981.338          44.000                    22062576.180

 121035034.164 5  22681912.640        1250.224          39.000


 124144124.164 5  23248202.900       -3303.904          38.000    96556540.449 4
                     -2569.687          33.000                    23248198.960

 105710209.020 8  19830961.660       -1238.633          54.000    82219056.043 7
                      -963.384          50.000                    19830956.840

 105801365.270 7  19799276.480        1372.428          50.000    82289953.664 6
                      1067.454          42.000                    19799272.780

 116151451.063 7  21705676.660        4093.341          48.000    90340037.563 6
                      3183.715          45.000                    21705671.020

 115923237.250 7  21670619.140       -2802.014          48.000    90162512.703 5
                     -2179.349          40.000                    21670615.360

 107302383.688 7  20066084.280         903.622          47.000    83457412.184 5
                       702.809          36.000                    20066078.020

 101330484.266 6  19282549.200       -5325.168          41.000

  75668868.680 6  19282560.680       -3976.599          43.000
 136988006.754 5  26067949.780        -369.939          40.000

 102296237.012 5  26067956.200        -276.266          39.000
 135185411.516 6  25724927.780        2048.267          45.000

 100950147.465 6  25724934.860        1529.551          44.000
 121647384.098 7  23148725.820          34.588          48.000

  90840580.766 8  23148732.800          25.827          51.000
 125121077.883 7  23809749.960       -1974.008          47.000

  93434571.375 7  23809757.260       -1474.106          47.000
 18 10 12  1  9 15.0000000  0 25G02G06G12G14G19G24G25G29G31G32S23S36
                                R05R06R13R14R15R17R23R24E18E19E21E27
                                E30
 124487143.891 7  23689115.280        1460.722          46.000    97002970.46143
  23689110.620        1138.242          28.000    23689114.440

 125849241.645 6  23948311.980        -398.403          42.000    98064356.16042
  23948312.460        -310.425          22.000    23948311.860

 109889969.543 8  20911361.680       -2065.775          51.000    85628554.44945
  20911358.840       -1609.693          39.000    20911361.380

 116972838.336 7  22259189.240        1222.734          47.000    91147658.75844
  22259186.420         952.778          31.000    22259188.500

 131565990.691 5  25036172.440       -3753.780          38.000   102518952.04741
  25036167.960       -2925.022          16.000    25036171.140

 121501400.953 7  23120943.920       -3218.451          48.000    94676421.36744
  23120945.080       -2507.879          34.000    23120943.600

 106787153.781 8  20320915.600         420.454          52.000    83210774.11346
  20320915.680         327.629          44.000    20320914.600

 116583360.578 7  22185072.900        3292.576          50.000    90844172.32444
  22185070.820        2565.648          35.000    22185072.660

 123327707.695 7  23468483.300        3137.678          47.000    96099511.43443
  23468480.360        2444.939          28.000    23468483.140

 114074165.086 7  21707591.560        -662.785          50.000    88888952.40645
  21707591.740        -516.451          38.000    21707591.440

 205062505.160 7  39022096.240           3.203          46.000


 200999129.191 7  38248689.160           -.204          46.000


 117975467.887 7  22069743.860       -2557.438          46.000    91758671.602 6
                     -1989.077          44.000                    22069738.460

 121016377.359 5  22678416.440        1237.419          39.000


 124193700.012 5  23257486.880       -3306.303          40.000    96595099.422 4
                     -2571.525          34.000                    23257482.940

 105728837.730 8  19834456.360       -1245.186          53.000    82233545.016 7
                      -968.447          50.000                    19834451.560

 105780822.156 7  19795432.120        1366.646          50.000    82273975.684 6
                      1062.976          42.000                    19795428.420

 116090095.234 7  21694210.860        4087.347          48.000    90292316.375 6
                      3179.062          45.000                    21694205.220

 115965346.359 7  21678491.000       -2812.533          48.000    90195264.223 6
                     -2187.468          41.000                    21678487.220

 107288936.730 7  20063569.620         889.369          47.000    83446953.438 5
                       691.758          37.000                    20063563.360

 101410466.973 6  19297769.400       -5339.177          42.000

  75728596.004 6  19297780.860       -3987.031          42.000
 136993610.035 5  26069016.060        -377.245          40.000

 102300421.262 5  26069022.440        -281.652          39.000
 135154698.500 7  25719083.280        2046.763          46.000

 100927212.414 6  25719090.380        1528.449          44.000
 121646890.078 7  23148631.820          31.270          48.000

  90840211.844 8  23148638.800          23.383          51.000
 125150702.293 7  23815387.420       -1975.932          47.000

  93456693.484 7  23815394.780       -1475.496          47.000
 18 10 12  1  9 30.0000000  0 25G02G06G12G14G19G24G25G29G31G32S23S36
                                R05R06R13R14R15R17R23R24E18E19E21E27
                                E30
 124465282.664 7  23684955.220        1454.108          46.000    96985935.75443
  23684950.560        1133.059          29.000    23684954.380

 125855288.945 6  23949462.740        -407.940          42.000    98069068.35942
  23949463.200        -317.867          21.000    23949462.620

 109920991.449 8  20917264.940       -2070.481          52.000    85652727.35545
  20917262.100       -1613.361          40.000    20917264.640

 116954563.906 7  22255711.720        1213.827          47.000    91133418.94544
  22255708.920         945.845          31.000    22255711.000

 131622317.809 5  25046891.120       -3756.496          39.000   102562843.32041
  25046886.640       -2927.150          17.000    25046889.840

 121549702.031 7  23130135.320       -3221.709          48.000    94714058.57844
  23130136.480       -2510.424          34.000    23130135.000

 106780896.281 8  20319724.820         413.832          52.000    83205898.14546
  20319724.920         322.466          44.000    20319723.840

 116534010.941 7  22175681.960        3287.362          50.000    90805718.06244
  22175679.900        2561.587          35.000    22175681.720

 123280658.078 7  23459530.060        3135.612          47.000    96062849.38343
  23459527.100        2443.323          28.000    23459529.900

 114084180.723 7  21709497.480        -672.714          50.000    88896756.79745
  21709497.640        -524.193          38.000    21709497.360

 205062456.168 7  39022086.980           3.349          46.000


 200999128.480 7  38248689.080            .149          46.000


 118013903.992 7  22076934.140       -2567.294          46.000    91788566.352 6
                     -1996.771          44.000                    22076928.740

 120997909.328 5  22674955.640        1225.047          40.000


 124243311.062 5  23266777.440       -3308.493          38.000    96633685.785 4
                     -2573.272          34.000                    23266773.520

 105747563.293 8  19837969.220       -1251.565          54.000    82248109.352 7
                      -973.436          50.000                    19837964.440

 105760365.629 7  19791603.960        1360.946          50.000    82258065.059 6
                      1058.522          42.000                    19791600.260

 116028828.719 7  21682761.740        4081.536          48.000    90244664.656 6
                      3174.528          44.000                    21682756.100

 116007612.184 7  21686392.160       -2822.872          48.000    90228137.633 6
                     -2195.551          41.000                    21686388.360

 107275701.762 7  20061094.620         875.281          46.000    83436659.582 5
                       680.756          36.000                    20061088.340

 101490658.566 6  19313029.440       -5352.984          42.000

  75788479.348 6  19313040.720       -3997.346          41.000
 136999322.086 5  26070103.040        -384.403          40.000

 102304686.770 5  26070109.400        -287.061          39.000
 135124007.043 6  25713242.880        2045.455          45.000

 100904293.484 6  25713250.000        1527.449          44.000
 121646444.422 7  23148547.000          28.138          48.000

  90839879.059 8  23148553.980          21.005          51.000
 125180354.531 7  23821030.160       -1977.689          48.000

  93478836.391 7  23821037.600       -1476.837          48.000
 18 10 12  1  9 45.0000000  0 25G02G06G12G14G19G24G25G29G31G32S23S36
                                R05R06R13R14R15R17R23R24E18E19E21E27
                                E30
 124443522.477 7  23680814.400        1447.298          46.000    96968979.77343
  23680809.720        1127.766          29.000    23680813.560

 125861480.555 6  23950640.960        -417.596          43.000    98073892.98842
  23950641.420        -325.384          21.000    23950640.840

 109952085.930 8  20923182.020       -2075.404          52.000    85676956.82445
  20923179.200       -1617.195          40.000    20923181.720

 116936425.477 7  22252260.100        1204.670          47.000    91119285.09044
  22252257.280         938.718          31.000    22252259.360

 131678686.621 6  25057617.760       -3759.334          41.000   102606767.10242
  25057613.260       -2929.364          21.000    25057616.460

 121598053.723 7  23139336.360       -3225.175          47.000    94751735.22744
  23139337.500       -2513.119          32.000    23139336.020

 106774740.621 8  20318553.440         406.947          53.000    83201101.52346
  20318553.540         317.101          44.000    20318552.460

 116484741.277 7  22166306.260        3281.944          50.000    90767326.12944
  22166304.180        2557.362          35.000    22166306.020

 123233641.809 7  23450583.180        3133.268          47.000    96026213.32443
  23450580.220        2441.494          29.000    23450583.020

 114094346.953 7  21711432.040        -682.792          50.000    88904678.52745
  21711432.220        -532.041          38.000    21711431.940

 205062407.590 6  39022077.700           3.237          45.000


 200999127.898 7  38248689.100           -.130          46.000


 118052489.563 7  22084152.380       -2577.356          47.000    91818577.328 6
                     -2004.611          44.000                    22084146.980

 120979631.102 5  22671530.140        1212.246          39.000


 124292957.395 5  23276074.620       -3310.980          39.000    96672299.617 4
                     -2575.241          35.000                    23276070.700

 105766386.082 8  19841500.340       -1258.079          54.000    82262749.301 7
                      -978.513          49.000                    19841495.540

 105739995.605 7  19787791.980        1355.101          50.000    82242221.703 6
                      1053.970          42.000                    19787788.280

 115967652.477 7  21671329.500        4075.391          48.000    90197083.145 6
                      3169.752          44.000                    21671323.840

 116050034.582 7  21694322.600       -2833.391          48.000    90261132.840 6
                     -2203.746          41.000                    21694318.800

 107262679.562 7  20058659.400         861.071          46.000    83426531.195 5
                       669.733          36.000                    20058653.120

 101571058.391 6  19328329.100       -5366.947          42.000

  75848518.203 5  19328340.200       -4007.785          40.000
 137005143.281 5  26071210.780        -391.714          40.000

 102309033.750 5  26071217.120        -292.509          40.000
 135093337.602 7  25707406.680        2043.835          46.000

 100881390.973 6  25707413.760        1526.237          44.000
 121646047.566 7  23148471.460          24.805          48.000

  90839582.699 8  23148478.460          18.520          51.000
 125210035.008 7  23826678.200       -1979.667          47.000

  93501000.367 7  23826685.780       -1478.338          48.000
 18 10 12  1 10  0.0000000  0 25G02G06G12G14G19G24G25G29G31G32S23S36
                                R05R06R13R14R15R17R23R24E18E19E21E27
                                E30
 124421863.312 7  23676692.800        1440.596          46.000    96952102.52043
  23676688.120        1122.543          30.000    23676691.940

 125867816.145 6  23951846.580        -427.211          42.000    98078829.80942
  23951847.040        -332.880          21.000    23951846.460

 109983252.508 8  20929112.840       -2080.163          52.000    85701242.46145
  20929110.000       -1620.903          40.000    20929112.540

 116918422.863 7  22248834.320        1195.692          47.000    91105257.08244
  22248831.500         931.721          31.000    22248833.580

 131735096.449 6  25068352.180       -3761.963          41.000   102650722.80142
  25068347.680       -2931.405          23.000    25068350.900

 121646455.469 7  23148546.900       -3228.423          47.000    94789450.87144
  23148548.060       -2515.650          31.000    23148546.580

 106768686.402 8  20317401.360         400.233          53.000    83196383.94946
  20317401.460         311.873          44.000    20317400.380

 116435551.680 7  22156945.780        3276.635          49.000    90728996.57044
  22156943.700        2553.223          35.000    22156945.540

 123186658.797 7  23441642.600        3131.117          47.000    95989603.19943
  23441639.660        2439.834          28.000    23441642.440

 114104663.328 7  21713395.200        -692.750          50.000    88912717.25845
  21713395.360        -539.805          38.000    21713395.080

 205062358.660 7  39022068.400           3.319          46.000


 200999130.180 7  38248689.600           -.305          46.000


 118091223.930 7  22091398.460       -2587.235          47.000    91848704.047 6
                     -2012.253          44.000                    22091393.060

 120961542.102 5  22668140.280        1199.685          39.000


 124342638.816 5  23285378.360       -3313.246          39.000    96710940.688 4
                     -2576.971          34.000                    23285374.440

 105785306.004 8  19845049.680       -1264.529          54.000    82277464.773 7
                      -983.501          49.000                    19845044.880

 105719712.184 7  19783996.220        1349.367          50.000    82226445.703 6
                      1049.530          42.000                    19783992.520

 115906566.703 7  21659914.160        4069.377          48.000    90149571.984 6
                      3165.077          44.000                    21659908.500

 116092612.895 7  21702282.160       -2843.706          48.000    90294249.289 5
                     -2211.773          40.000                    21702278.360

 107249869.582 7  20056263.880         846.945          46.000    83416567.898 5
                       658.743          36.000                    20056257.580

 101651665.117 6  19343668.080       -5380.589          42.000

  75908711.566 6  19343679.040       -4017.958          41.000
 137011073.219 5  26072339.200        -398.981          40.000

 102313461.953 5  26072345.580        -297.949          40.000
 135062689.895 7  25701574.600        2042.492          46.000

 100858504.699 6  25701581.700        1525.252          44.000
 121645699.219 7  23148405.160          21.631          48.000

  90839322.566 8  23148412.160          16.176          51.000
 125239743.348 7  23832331.500       -1981.451          47.000

  93523185.160 7  23832339.240       -1479.636          48.000
 18 10 12  1 10 15.0000000  0 25G02G06G12G14G19G24G25G29G31G32S23S36
                                R05R06R13R14R15R17R23R24E18E19E21E27
                                E30
 124400305.699 6  23672590.520        1433.657          45.000    96935304.39843
  23672585.860        1117.129          29.000    23672589.660

 125874296.004 6  23953079.640        -436.947          42.000    98083879.05542
  23953080.100        -340.484          21.000    23953079.520

 110014490.922 8  20935057.300       -2085.092          52.000    85725584.08645
  20935054.480       -1624.751          40.000    20935057.000

 116900556.484 7  22245434.460        1186.441          47.000    91091335.23844
  22245431.640         924.494          31.000    22245433.720

 131791547.168 6  25079094.400       -3764.771          42.000   102694710.39542
  25079089.900       -2933.594          24.000    25079093.100

 121694907.215 7  23157766.960       -3231.995          47.000    94827205.49244
  23157768.120       -2518.441          31.000    23157766.640

 106762733.926 8  20316268.660         393.341          53.000    83191745.66046
  20316268.740         306.495          44.000    20316267.660

 116386442.742 7  22147600.640        3271.102          50.000    90690729.88344
  22147598.580        2548.911          35.000    22147600.400

 123139709.691 7  23432708.500        3128.692          47.000    95953019.46943
  23432705.540        2437.938          28.000    23432708.340

 114115130.102 7  21715386.960        -702.913          50.000    88920873.18445
  21715387.140        -547.728          38.000    21715386.840

 205062309.871 7  39022059.080           3.137          46.000


 200999134.191 7  38248690.360           -.533          46.000


 118130106.898 7  22098672.320       -2597.252          46.000    91878946.348 6
                     -2020.101          44.000                    22098666.940

 120943643.098 5  22664785.920        1186.812          39.000


 124392355.578 5  23294688.720       -3315.678          40.000    96749609.258 5
                     -2578.876          36.000                    23294684.800

 105804322.918 8  19848617.220       -1271.139          54.000    82292255.723 7
                      -988.681          49.000                    19848612.400

 105699516.176 7  19780216.820        1343.371          50.000    82210737.703 6
                      1044.820          42.000                    19780213.100

 115845572.203 7  21648515.880        4063.181          48.000    90102131.828 6
                      3160.220          44.000                    21648510.200

 116135346.832 7  21710270.800       -2854.214          47.000    90327486.797 5
                     -2219.965          40.000                    21710267.020

 107237272.586 7  20053908.180         832.591          47.000    83406770.227 5
                       647.546          37.000                    20053901.860

 101732478.020 5  19359046.180       -5394.549          40.000

  75969058.867 6  19359057.200       -4028.416          42.000
 137017112.203 5  26073488.380        -406.337          40.000

 102317971.578 5  26073494.760        -303.440          39.000
 135032064.281 6  25695746.700        2040.862          45.000

 100835634.926 6  25695753.840        1523.991          45.000
 121645399.715 7  23148348.160          18.207          48.000

  90839098.914 8  23148355.160          13.573          51.000
 125269479.891 7  23837990.080       -1983.512          47.000

  93545390.996 7  23837998.020       -1481.213          47.000
 18 10 12  1 10 30.0000000  0 25G02G06G12G14G19G24G25G29G31G32S23S36
                                R05R06R13R14R15R17R23R24E18E19E21E27
                                E30
 124378849.652 7  23668507.560        1426.907          46.000    96918585.42243
  23668502.900        1111.868          29.000    23668506.720

 125880919.891 6  23954340.120        -446.492          42.000    98089040.55142
  23954340.580        -347.932          21.000    23954340.000

 110045801.035 8  20941015.420       -2089.845          52.000    85749981.57845
  20941012.600       -1628.455          40.000    20941015.120

 116882826.332 7  22242060.520        1177.373          47.000    91077519.52744
  22242057.720         917.444          31.000    22242059.800

 131848038.312 6  25089844.300       -3767.451          41.000   102738729.48042
  25089839.800       -2935.676          22.000    25089843.000

 121743408.727 6  23166996.500       -3235.202          45.000    94864998.87943
  23166997.660       -2520.948          29.000    23166996.180

 106756882.961 8  20315155.240         386.616          53.000    83187186.46546
  20315155.340         301.256          44.000    20315154.260

 116337414.574 7  22138270.880        3265.770          49.000    90652526.12544
  22138268.820        2544.750          35.000    22138270.640

 123092794.199 7  23423780.760        3126.463          47.000    95916461.94143
  23423777.820        2436.197          28.000    23423780.600

 114125746.941 7  21717407.280        -712.881          50.000    88929146.04345
  21717407.460        -555.497          38.000    21717407.160

 205062260.727 7  39022049.740           3.178          46.000


 200999137.211 7  38248690.760           -.250          46.000


 118169137.668 7  22105973.840       -2607.092          46.000    91909303.602 6
                     -2027.755          43.000                    22105968.460

 120925933.906 5  22661467.440        1174.148          40.000


 124442107.191 6  23304005.600       -3318.044          41.000    96788304.938 5
                     -2580.757          36.000                    23304001.700

 105823436.883 8  19852202.960       -1277.563          54.000    82307122.125 7
                      -993.684          49.000                    19852198.140

 105679407.297 7  19776453.720        1337.580          50.000    82195097.457 6
                      1040.302          42.000                    19776450.000

 115784669.262 7  21637134.700        4057.060          48.000    90054762.871 6
                      3155.444          44.000                    21637129.020

 116178235.797 7  21718288.440       -2864.539          46.000    90360844.871 5
                     -2228.012          38.000                    21718284.660

 107224888.488 7  20051592.280         818.368          46.000    83397138.156 5
                       636.471          37.000                    20051585.960

 101813495.883 5  19374463.280       -5408.090          39.000

  76029559.191 6  19374474.440       -4038.536          42.000
 137023259.957 5  26074658.260        -413.613          40.000

 102322562.426 5  26074664.620        -308.894          39.000
 135001460.574 7  25689923.020        2039.418          46.000

 100812781.516 6  25689930.200        1522.924          44.000
 121645148.863 7  23148300.400          15.005          48.000

  90838911.590 8  23148307.440          11.182          51.000
 125299244.398 7  23843653.960       -1985.312          46.000

  93567617.719 7  23843662.100       -1482.553          47.000
 18 10 12  1 10 45.0000000  0 25G02G06G12G14G19G24G25G29G31G32S23S36
                                R05R06R13R14R15R17R23R24E18E19E21E27
                                E30
 124357495.414 7  23664443.960        1420.250          46.000    96901945.77743
  23664439.320        1106.692          28.000    23664443.140

 125887687.687 6  23955627.980        -455.893          42.000    98094314.15642
  23955628.440        -355.234          22.000    23955627.880

 110077182.879 8  20946987.200       -2094.462          52.000    85774434.96545
  20946984.360       -1632.046          40.000    20946986.900

 116865232.516 7  22238712.540        1168.410          47.000    91063810.06244
  22238709.720         910.446          31.000    22238711.800

 131904569.414 5  25100601.820       -3770.015          39.000   102782779.66442
  25100597.280       -2937.646          21.000    25100600.500

 121791959.863 6  23176235.460       -3238.352          45.000    94902830.92244
  23176236.640       -2523.390          31.000    23176235.140

 106751133.336 8  20314061.140         379.977          53.000    83182706.23446
  20314061.220         296.087          44.000    20314060.140

 116288467.266 7  22128956.520        3260.500          49.000    90614385.37544
  22128954.460        2540.648          35.000    22128956.280

 123045912.387 7  23414859.460        3124.338          47.000    95879930.67243
  23414856.500        2434.558          28.000    23414859.300

 114136513.641 7  21719456.120        -722.754          50.000    88937535.66445
  21719456.300        -563.181          38.000    21719456.000

 205062211.488 7  39022040.380           3.339          46.000


 200999137.023 7  38248690.540            .005          46.000


 118208315.773 7  22113302.920       -2616.739          47.000    91939775.457 6
                     -2035.218          43.000                    22113297.540

 120908414.984 5  22658184.180        1161.660          39.000


 124491893.723 5  23313329.020       -3320.283          40.000    96827027.812 4
                     -2582.456          35.000                    23313325.140

 105842647.766 8  19855806.860       -1283.920          54.000    82322063.934 7
                      -998.595          49.000                    19855802.060

 105659385.461 7  19772706.900        1331.876          50.000    82179524.922 6
                      1035.903          42.000                    19772703.180

 115723858.398 7  21625770.740        4050.995          48.000    90007465.551 6
                      3150.777          44.000                    21625765.060

 116221279.281 7  21726334.940       -2874.672          47.000    90394323.129 5
                     -2235.855          37.000                    21726331.200

 107212717.219 7  20049316.200         804.343          46.000    83387671.613 5
                       625.616          37.000                    20049309.860

 101894717.449 6  19389919.160       -5421.491          41.000

  76090211.637 6  19389930.500       -4048.503          43.000
 137029516.289 5  26075848.840        -420.618          39.000

 102327234.363 5  26075855.160        -314.069          39.000
 134970878.711 7  25684103.460        2038.083          46.000

 100789944.410 6  25684110.660        1521.949          44.000
 121644946.555 7  23148261.900          11.912          48.000

  90838760.516 8  23148268.940           8.908          51.000
 125329036.758 7  23849323.120       -1987.050          46.000

  93589865.250 7  23849331.400       -1483.838          47.000
 18 10 12  1 11  0.0000000  0 25G02G06G12G14G19G24G25G29G31G32S23S36
                                R05R06R13R14R15R17R23R24E18E19E21E27
                                E30
 124336243.578 6  23660399.860        1413.420          45.000    96885385.91043
  23660395.220        1101.360          28.000    23660399.040

 125894599.777 6  23956943.300        -465.529          42.000    98099700.21942
  23956943.760        -362.743          22.000    23956943.200

 110108636.449 8  20952972.620       -2099.226          52.000    85798944.24245
  20952969.780       -1635.758          40.000    20952972.320

 116847775.406 7  22235390.560        1159.282          47.000    91050207.11744
  22235387.740         903.337          31.000    22235389.820

 131961140.543 5  25111366.940       -3772.670          38.000   102826861.02341
  25111362.400       -2939.734          18.000    25111365.620

 121840560.594 7  23185483.860       -3241.630          46.000    94940701.57444
  23185485.060       -2525.941          31.000    23185483.560

 106745485.441 8  20312986.380         373.206          53.000    83178305.28146
  20312986.460         290.812          44.000    20312985.380

 116239601.621 7  22119657.680        3255.066          49.000    90576308.25044
  22119655.620        2536.415          35.000    22119657.440

 122999064.977 7  23405944.700        3122.040          47.000    95843426.18043
  23405941.740        2432.766          29.000    23405944.540

 114147430.469 7  21721533.520        -732.719          50.000    88946042.27745
  21721533.700        -570.952          38.000    21721533.420

 205062162.437 7  39022031.060           3.346          46.000


 200999136.391 7  38248690.320            .039          46.000


 118247640.992 7  22120659.520       -2626.564          46.000    91970361.715 6
                     -2042.889          43.000                    22120654.160

 120891086.625 5  22654936.960        1148.986          39.000


 124541715.156 5  23322659.000       -3322.487          40.000    96865777.809 5
                     -2584.173          36.000                    23322655.100

 105861955.965 8  19859429.040       -1290.370          54.000    82337081.418 7
                     -1003.632          49.000                    19859424.220

 105639451.691 7  19768976.580        1326.087          50.000    82164020.871 6
                      1031.412          42.000                    19768972.860

 115663140.488 7  21614424.140        4044.808          48.000    89960240.504 6
                      3145.938          44.000                    21614418.460

 116264477.020 7  21734410.320       -2884.917          48.000    90427921.375 5
                     -2243.804          38.000                    21734406.540

 107200759.387 7  20047080.020         790.175          46.000    83378371.070 5
                       614.565          37.000                    20047073.680

 101976142.117 6  19405413.800       -5434.977          42.000

  76151015.742 6  19405425.160       -4058.585          43.000
 137035881.566 5  26077060.120        -427.867          40.000

 102331987.637 5  26077066.400        -319.487          39.000
 134940319.137 7  25678288.160        2036.592          46.000

 100767123.941 6  25678295.360        1520.837          44.000
 121644793.219 7  23148232.720           8.662          49.000

  90838646.004 8  23148239.760           6.474          51.000
 125358857.309 7  23854997.680       -1988.904          46.000

  93612133.816 7  23855006.020       -1485.220          47.000
 18 10 12  1 11 15.0000000  0 25G02G06G12G14G19G24G25G29G31G32S23S36
                                R05R06R13R14R15R17R23R24E18E19E21E27
                                E30
 124315093.781 6  23656375.180        1406.608          45.000    96868905.57043
  23656370.540        1096.051          28.000    23656374.340

 125901655.609 6  23958285.980        -475.196          42.000    98105198.24642
  23958286.440        -370.277          21.000    23958285.880

 110140161.141 8  20958971.560       -2103.964          52.000    85823508.93045
  20958968.740       -1639.443          40.000    20958971.260

 116830454.738 7  22232094.540        1150.201          47.000    91036710.49244
  22232091.740         896.263          31.000    22232093.820

 132017750.793 5  25122139.500       -3775.296          38.000   102870972.86741
  25122134.980       -2941.778          18.000    25122138.200

 121889210.617 7  23194741.660       -3244.940          46.000    94978610.69144
  23194742.860       -2528.515          31.000    23194741.360

 106739938.711 8  20311930.880         366.477          53.000    83173983.14846
  20311930.960         285.575          44.000    20311929.880

 116190817.367 7  22110374.340        3249.598          50.000    90538294.55544
  22110372.280        2532.166          35.000    22110374.100

 122952251.758 7  23397036.440        3119.748          47.000    95806948.36343
  23397033.480        2430.975          28.000    23397036.280

 114158496.805 8  21723639.380        -742.698          51.000    88954665.39545
  21723639.560        -578.720          38.000    21723639.280

 205062113.437 7  39022021.740           3.348          46.000


 200999133.016 7  38248689.680            .335          46.000


 118287112.422 7  22128043.480       -2636.208          47.000    92001061.703 6
                     -2050.360          43.000                    22128038.100

 120873948.324 5  22651725.260        1136.315          38.000


 124591571.148 5  23331995.420       -3324.781          39.000    96904554.691 5
                     -2585.926          36.000                    23331991.560

 105881360.992 8  19863069.380       -1296.837          53.000    82352174.215 7
                     -1008.612          49.000                    19863064.560

 105619604.723 7  19765262.500        1320.209          50.000    82148584.344 6
                      1026.852          42.000                    19765258.760

 115602515.586 7  21603094.920        4038.593          48.000    89913087.809 6
                      3141.167          44.000                    21603089.220

 116307828.094 7  21742514.360       -2895.154          48.000    90461638.895 5
                     -2251.731          38.000                    21742510.560

 107189014.402 7  20044883.640         775.894          46.000    83369236.109 5
                       603.510          37.000                    20044877.300

 102057768.301 6  19420946.800       -5448.399          42.000

  76211970.355 6  19420958.140       -4068.577          42.000
 137042355.184 5  26078292.040        -435.134          40.000

 102336821.832 5  26078298.220        -324.911          39.000
 134909781.352 6  25672477.040        2035.173          45.000

 100744319.762 6  25672484.220        1519.817          44.000
 121644688.344 7  23148212.760           5.404          48.000

  90838567.691 8  23148219.800           4.078          51.000
 125388705.531 7  23860677.580       -1990.766          46.000

  93634423.062 7  23860685.860       -1486.574          47.000
 18 10 12  1 11 30.0000000  0 25G02G06G12G14G19G24G25G29G31G32S23S36
                                R05R06R13R14R15R17R23R24E18E19E21E27
                                E30
 124294046.605 7  23652370.020        1399.681          46.000    96852505.18843
  23652365.380        1090.671          28.000    23652369.200

 125908855.555 6  23959656.080        -484.801          42.000    98110808.59842
  23959656.540        -377.770          22.000    23959655.980

 110171756.988 8  20964984.040       -2108.771          51.000    85848129.07445
  20964981.240       -1643.199          39.000    20964983.760

 116813271.355 7  22228824.660        1140.945          47.000    91023320.83644
  22228821.840         889.049          31.000    22228823.920

 132074400.230 5  25132919.520       -3777.949          40.000   102915115.32840
  25132915.000       -2943.875          13.000    25132918.220

 121937909.895 7  23204008.820       -3248.282          46.000    95016558.15244
  23204010.040       -2531.128          32.000    23204008.520

 106734493.570 8  20310894.700         359.579          53.000    83169740.18446
  20310894.780         280.190          44.000    20310893.700

 116142115.305 7  22101106.640        3244.018          50.000    90500344.90644
  22101104.580        2527.808          35.000    22101106.400

 122905473.379 7  23388134.800        3117.362          47.000    95770497.68043
  23388131.840        2429.111          28.000    23388134.640

 114169712.961 7  21725773.760        -752.737          49.000    88963405.25845
  21725773.940        -586.544          38.000    21725773.640

 205062064.293 7  39022012.400           3.175          46.000


 200999129.332 7  38248689.140            .147          47.000


 118326729.969 7  22135454.780       -2646.077          46.000    92031875.352 6
                     -2058.075          43.000                    22135449.400

 120857001.004 5  22648549.220        1123.432          38.000


 124641461.949 5  23341338.380       -3327.283          38.000    96943358.602 4
                     -2587.904          34.000                    23341334.500

 105900863.105 8  19866727.920       -1303.415          53.000    82367342.531 7
                     -1013.763          49.000                    19866723.100

 105599846.055 7  19761564.940        1314.266          50.000    82133216.492 6
                      1022.213          42.000                    19761561.200

 115541984.500 7  21591783.240        4032.164          48.000    89866008.082 6
                      3136.125          43.000                    21591777.540

 116351332.453 7  21750647.040       -2905.424          49.000    90495475.641 5
                     -2259.787          39.000                    21750643.240

 107177483.094 7  20042727.220         761.610          46.000    83360267.312 5
                       592.351          37.000                    20042720.880

 102139595.422 6  19436517.980       -5461.837          42.000

  76273075.039 6  19436529.280       -4078.646          41.000
 137048937.562 5  26079544.700        -442.463          40.000

 102341737.242 5  26079550.720        -330.407          39.000
 134879265.848 6  25666670.100        2033.629          45.000

 100721532.215 6  25666677.300        1518.622          45.000
 121644632.422 7  23148202.120           2.054          48.000

  90838525.930 8  23148209.160           1.545          51.000
 125418581.867 7  23866362.860       -1992.760          46.000

  93656733.316 7  23866371.000       -1488.108          46.000
 18 10 12  1 11 45.0000000  0 25G02G06G12G14G19G24G25G29G31G32S23S36
                                R05R06R13R14R15R17R23R24E18E19E21E27
                                E30
 124273102.121 7  23648384.420        1393.001          46.000    96836184.80543
  23648379.760        1085.452          27.000    23648383.580

 125916199.273 6  23961053.540        -494.339          42.000    98116530.98842
  23961054.000        -385.209          22.000    23961053.420

 110203423.516 8  20971009.980       -2113.374          51.000    85872804.28545
  20971007.180       -1646.787          39.000    20971009.680

 116796224.793 7  22225580.800        1131.942          47.000    91010037.80144
  22225578.000         882.037          31.000    22225580.080

 132131088.086 6  25143706.860       -3780.355          41.000   102959287.78541
  25143702.320       -2945.798          17.000    25143705.560

 121986658.195 7  23213285.320       -3251.456          47.000    95054543.82444
  23213286.540       -2533.609          32.000    23213285.020

 106729149.609 8  20309877.780         352.954          53.000    83165576.05946
  20309877.860         275.027          44.000    20309876.780

 116093495.270 7  22091854.540        3238.659          49.000    90462459.17244
  22091852.480        2523.624          35.000    22091854.300

 122858729.641 7  23379239.780        3115.184          47.000    95734073.97743
  23379236.800        2427.424          29.000    23379239.620

 114181078.488 7  21727936.540        -762.612          50.000    88972261.50845
  21727936.720        -594.246          38.000    21727936.420

 205062015.187 7  39022003.060           3.350          46.000


 200999130.504 7  38248689.640           -.053          46.000


 118366492.699 7  22142893.220       -2655.645          46.000    92062801.902 6
                     -2065.489          43.000                    22142887.860

 120840244.340 5  22645409.120        1110.768          39.000


 124691387.234 5  23350687.780       -3329.402          39.000


 105920462.254 8  19870404.660       -1309.737          53.000    82382586.301 7
                     -1018.675          49.000                    19870399.860

 105580175.215 7  19757883.800        1308.512          50.000    82117916.953 6
                      1017.735          43.000                    19757880.080

 115481547.566 7  21580489.140        4026.008          47.000    89819001.586 6
                      3131.330          44.000                    21580483.440

 116394989.336 7  21758808.260       -2915.447          49.000    90529431.012 5
                     -2267.580          39.000                    21758804.420

 107166164.984 7  20040610.660         747.527          46.000    83351464.348 5
                       581.428          37.000                    20040604.340

 102221622.094 6  19452127.100       -5475.044          41.000

  76334328.738 5  19452138.360       -4088.544          40.000
 137055628.242 5  26080817.920        -449.526          40.000

 102346733.531 5  26080823.860        -335.688          39.000
 134848772.289 6  25660867.360        2032.231          45.000

 100698761.055 6  25660874.560        1517.548          45.000
 121644625.086 7  23148200.720          -1.070          48.000

  90838520.457 8  23148207.740           -.803          51.000
 125448485.898 7  23872053.460       -1994.453          47.000

  93679064.246 7  23872061.340       -1489.378          46.000
 18 10 12  1 12  0.0000000  0 25G02G06G12G14G19G24G25G29G31G32S23S36
                                R05R06R13R14R15R17R23R24E18E19E21E27
                                E30
 124252260.664 7  23644418.420        1386.080          46.000    96819944.71143
  23644413.740        1080.067          28.000    23644417.580

 125923686.922 6  23962478.380        -503.867          43.000    98122365.51642
  23962478.840        -392.602          22.000    23962478.280

 110235160.680 8  20977049.360       -2118.103          51.000    85897534.53545
  20977046.560       -1650.468          39.000    20977049.060

 116779315.484 7  22222363.080        1122.798          47.000    90996861.71544
  22222360.260         874.905          31.000    22222362.340

 132187814.168 6  25154501.480       -3782.902          41.000   103003490.01642
  25154496.940       -2947.720          21.000    25154500.160

 122035455.270 7  23222571.120       -3254.681          46.000    95092567.50444
  23222572.320       -2536.109          31.000    23222570.800

 106723907.012 8  20308880.140         346.199          53.000    83161490.91846
  20308880.220         269.763          44.000    20308879.160

 116044957.762 7  22082618.160        3233.151          50.000    90424637.75044
  22082616.100        2519.334          35.000    22082617.920

 122812020.895 7  23370351.400        3112.832          47.000    95697677.54343
  23370348.420        2425.579          28.000    23370351.240

 114192593.473 7  21730127.780        -772.627          50.000    88981234.21545
  21730127.960        -602.047          38.000    21730127.660

 205061966.277 7  39021993.740           3.428          46.000


 200999134.672 7  38248690.560           -.176          46.000


 118406400.410 7  22150358.800       -2665.231          46.000    92093841.227 6
                     -2072.944          42.000                    22150353.420

 120823678.434 5  22642304.600        1098.100          38.000


 124741346.816 5  23360043.620       -3331.670          37.000


 105940158.457 8  19874099.620       -1316.265          53.000    82397905.578 7
                     -1023.762          49.000                    19874094.800

 105560592.727 7  19754219.220        1302.666          50.000    82102686.121 6
                      1013.182          42.000                    19754215.480

 115421205.414 7  21569212.760        4019.706          48.000    89772068.801 6
                      3126.445          44.000                    21569207.060

 116438798.602 7  21766997.940       -2925.608          49.000    90563504.875 5
                     -2275.484          40.000                    21766994.100

 107155060.559 7  20038534.080         733.284          46.000    83342827.574 5
                       570.326          37.000                    20038527.760

 102303847.488 5  19467773.980       -5488.211          40.000

  76395730.820 5  19467785.260       -4098.349          40.000
 137062427.391 5  26082111.800        -456.813          40.000

 102351810.816 5  26082117.680        -341.127          39.000
 134818300.945 6  25655068.840        2030.713          45.000

 100676006.480 6  25655076.020        1516.425          45.000
 121644666.559 7  23148208.620          -4.339          48.000

  90838551.422 8  23148215.620          -3.244          51.000
 125478417.855 7  23877749.420       -1996.312          47.000

  93701416.023 7  23877757.020       -1490.754          46.000
 18 10 12  1 12 15.0000000  0 25G02G06G12G14G19G24G25G29G31G32S23S36
                                R05R06R13R14R15R17R23R24E18E19E21E27
                                E30
 124231522.594 7  23640472.080        1378.979          46.000    96803785.16843
  23640467.400        1074.519          27.000    23640471.240

 125931318.586 6  23963930.640        -513.664          43.000    98128312.27742
  23963931.080        -400.232          22.000    23963930.540

 110266968.602 8  20983102.200       -2122.978          51.000    85922319.92645
  20983099.420       -1654.275          40.000    20983101.920

 116762543.734 7  22219171.520        1113.442          47.000    90983792.81644
  22219168.700         867.609          32.000    22219170.780

 132244578.535 5  25165303.360       -3785.601          40.000   103047721.99242
  25165298.820       -2949.832          21.000    25165302.060

 122084300.922 6  23231866.140       -3258.085          45.000    95130629.07443
  23231867.340       -2538.753          28.000    23231865.840

 106718765.855 8  20307901.820         339.274          53.000    83157484.82446
  20307901.900         264.365          44.000    20307900.820

 115996503.125 7  22073397.540        3227.454          50.000    90386880.89544
  22073395.480        2514.892          35.000    22073397.300

 122765347.414 7  23361469.720        3110.292          46.000    95661308.60943
  23361466.760        2423.591          28.000    23361469.580

 114204257.906 7  21732347.440        -782.698          50.000    88990323.37545
  21732347.640        -609.900          38.000    21732347.340

 205061917.598 7  39021984.480           3.220          46.000


 200999136.254 7  38248690.880           -.381          46.000


 118446452.742 7  22157851.420       -2675.003          46.000    92124993.035 6
                     -2080.546          43.000                    22157846.060

 120807304.148 5  22639236.040        1085.142          39.000


 124791340.750 5  23369405.880       -3334.161          37.000


 105959951.777 8  19877812.800       -1322.866          54.000    82413300.371 7
                     -1028.913          50.000                    19877807.980

 105541098.063 7  19750571.060        1296.598          50.000    82087523.613 6
                      1008.460          42.000                    19750567.320

 115360958.816 7  21557954.240        4013.170          47.000    89725210.352 6
                      3121.333          44.000                    21557948.520

 116482759.715 7  21775216.000       -2935.861          48.000    90597696.852 6
                     -2283.435          41.000                    21775212.180

 107144169.930 7  20036497.460         718.854          46.000    83334357.090 5
                       559.087          37.000                    20036491.140

 102386270.625 5  19483458.540       -5501.538          40.000

  76457280.570 6  19483469.840       -4108.305          41.000
 137069335.082 5  26083426.360        -464.182          40.000

 102356969.164 5  26083432.140        -346.635          39.000
 134787851.957 7  25649274.600        2029.071          46.000

 100653268.605 6  25649281.780        1515.199          45.000
 121644757.004 7  23148225.840          -7.727          48.000

  90838618.957 8  23148232.820          -5.787          51.000
 125508377.816 7  23883450.700       -1998.352          47.000

  93723788.730 7  23883457.980       -1492.292          46.000
 18 10 12  1 12 30.0000000  0 24G02G06G12G14G24G25G29G31G32S23S36R05
                                R06R13R14R15R17R23R24E18E19E21E27E30
 124210887.734 7  23636545.400        1372.195          46.000    96787706.05943
  23636540.680        1069.249          28.000    23636544.560

 125939093.887 6  23965410.220        -523.152          42.000    98134370.96942
  23965410.680        -407.666          22.000    23965410.120

 110298846.762 8  20989168.420       -2127.549          52.000    85947160.04745
  20989165.640       -1657.827          40.000    20989168.120

 116745909.391 7  22216006.100        1104.364          47.000    90970830.98444
  22216003.300         860.545          31.000    22216005.380

 122133195.250 6  23241170.420       -3261.209          45.000    95168728.53143
  23241171.640       -2541.191          27.000    23241170.120

 106713725.766 8  20306942.720         332.598          53.000    83153557.47346
  20306942.800         259.166          44.000    20306941.740

 115948131.312 7  22064192.680        3222.006          50.000    90349188.57844
  22064190.620        2510.651          35.000    22064192.440

 122718709.305 7  23352594.780        3108.021          47.000    95624967.23843
  23352591.820        2421.835          29.000    23352594.640

 114216071.332 7  21734595.460        -792.502          49.000    88999528.63745
  21734595.660        -617.529          38.000    21734595.360

 205061868.254 6  39021975.040           3.295          45.000


 200999139.059 7  38248691.380           -.229          46.000


 118486648.609 7  22165370.900       -2684.480          46.000    92156256.496 6
                     -2087.912          43.000                    22165365.520

 120791121.063 5  22636203.240        1072.466          39.000


 124841368.902 5  23378774.560       -3336.332          38.000


 105979841.957 8  19881544.140       -1329.177          54.000    82428770.496 7
                     -1033.791          50.000                    19881539.340

 105521692.211 7  19746939.520        1290.795          50.000    82072430.164 6
                      1003.966          42.000                    19746935.780

 115300807.875 7  21546713.580        4006.888          48.000    89678426.281 6
                      3116.478          45.000                    21546707.880

 116526871.688 7  21783462.260       -2945.792          47.000    90632006.145 6
                     -2291.136          41.000                    21783458.440

 107133492.922 7  20034500.800         704.710          46.000    83326052.754 5
                       548.097          37.000                    20034494.480

 102468890.121 6  19499180.520       -5514.514          42.000

  76518976.941 6  19499191.840       -4117.968          42.000
 137076350.883 5  26084761.440        -471.282          40.000

 102362208.219 5  26084767.180        -351.915          39.000
 134757425.012 6  25643484.540        2027.744          45.000

 100630547.184 6  25643491.780        1514.232          45.000
 121644896.051 7  23148252.280         -10.890          48.000

  90838722.789 8  23148259.260          -8.114          51.000
 125538365.430 7  23889157.220       -2000.102          47.000

  93746182.070 7  23889164.320       -1493.564          46.000
 18 10 12  1 12 45.0000000  0 24G02G06G12G14G24G25G29G31G32S23S36R05
                                R06R13R14R15R17R23R24E18E19E21E27E30
 124190356.676 7  23632638.480        1365.233          47.000    96771707.82843
  23632633.740        1063.829          28.000    23632637.620

 125947012.926 6  23966917.160        -532.786          43.000    98140541.63742
  23966917.600        -415.151          22.000    23966917.060

 110330795.105 8  20995247.980       -2132.243          52.000    85972054.85945
  20995245.200       -1661.487          40.000    20995247.700

 116729412.785 7  22212866.900        1095.175          47.000    90957976.48044
  22212864.100         853.383          32.000    22212866.180

 122182137.992 6  23250483.900       -3264.499          45.000    95206865.73843
  23250485.140       -2543.775          27.000    23250483.620

 106708786.969 8  20306002.900         325.870          53.000    83149709.06246
  20306002.980         253.927          44.000    20306001.920

 115899843.031 7  22055003.720        3216.404          50.000    90311561.35944
  22055001.660        2506.290          35.000    22055003.480

 122672106.914 7  23343726.640        3105.628          47.000    95588653.69143
  23343723.700        2419.968          28.000    23343726.500

 114228033.887 7  21736871.860        -802.534          50.000    89008850.09845
  21736872.060        -625.351          38.000    21736871.760

 205061818.730 7  39021965.580           3.244          46.000


 200999141.430 7  38248691.720           -.229          46.000


 118526988.023 7  22172917.220       -2694.051          46.000    92187631.566 6
                     -2095.372          43.000                    22172911.860

 120775129.410 5  22633206.160        1059.753          38.000


 124891431.547 5  23388149.700       -3338.665          37.000    97137779.406 4
                     -2596.700          33.000                    23388145.840

 105999829.219 8  19885293.700       -1335.730          53.000    82444316.141 7
                     -1038.886          50.000                    19885288.900

 105502374.758 7  19743324.520        1284.907          50.000    82057405.480 6
                       999.378          42.000                    19743320.800

 115240753.316 7  21535490.960        4000.427          48.000    89631717.184 6
                      3111.467          44.000                    21535485.240

 116571134.418 7  21791736.700       -2955.841          48.000    90666432.699 5
                     -2298.993          40.000                    21791732.900

 107123029.672 7  20032544.120         690.387          46.000    83317914.676 5
                       536.958          37.000                    20032537.800

 102551705.191 6  19514939.760       -5527.505          42.000

  76580819.355 6  19514951.160       -4127.693          42.000
 137083474.988 5  26086117.200        -478.493          40.000

 102367528.164 5  26086122.800        -357.290          39.000
 134727020.406 6  25637698.720        2026.226          45.000

 100607842.449 6  25637705.980        1513.107          45.000
 121645084.008 7  23148288.040         -14.189          48.000

  90838863.148 8  23148295.000         -10.595          51.000
 125568380.937 7  23894869.020       -2002.016          47.000

  93768596.250 7  23894876.020       -1495.000          46.000
 18 10 12  1 13  0.0000000  0 24G02G06G12G14G24G25G29G31G32S23S36R05
                                R06R13R14R15R17R23R24E18E19E21E27E30
 124169929.781 7  23628751.360        1358.301          46.000    96755790.77343
  23628746.600        1058.407          27.000    23628750.520

 125955076.023 6  23968451.500        -542.397          42.000    98146824.57042
  23968451.960        -422.654          23.000    23968451.420

 110362813.586 8  21001340.900       -2136.913          52.000    85997004.32445
  21001338.120       -1665.128          40.000    21001340.620

 116713054.125 7  22209753.960        1085.960          47.000    90945229.46944
  22209751.160         846.201          32.000    22209753.220

 122231128.973 7  23259806.580       -3267.702          46.000    95245040.53943
  23259807.820       -2546.249          29.000    23259806.300

 106703949.520 8  20305082.380         319.097          52.000    83145939.61746
  20305082.460         248.642          44.000    20305081.380

 115851638.848 7  22045830.760        3210.785          50.000    90273999.65644
  22045828.700        2501.910          35.000    22045830.520

 122625540.496 7  23334865.360        3103.184          47.000    95552368.16043
  23334862.400        2418.054          28.000    23334865.200

 114240145.523 7  21739176.640        -812.446          50.000    89018287.73845
  21739176.840        -633.079          38.000    21739176.520

 205061769.309 7  39021956.200           3.320          46.000


 200999142.414 7  38248691.760           -.035          46.000


 118567470.477 7  22180490.320       -2703.632          46.000    92219117.910 6
                     -2102.833          43.000                    22180484.960

 120759329.527 5  22630245.200        1046.906          38.000


 124941528.305 5  23397531.220       -3340.965          38.000


 106019913.711 8  19889061.520       -1342.223          54.000    82459937.410 7
                     -1043.957          50.000                    19889056.700

 105483146.004 7  19739726.120        1278.919          50.000    82042449.773 6
                       994.709          42.000                    19739722.380

 115180795.770 7  21524286.440        3993.863          47.000    89585083.531 6
                      3106.323          44.000                    21524280.720

 116615547.609 7  21800039.280       -2965.922          47.000    90700976.258 5
                     -2306.841          40.000                    21800035.480

 107112780.785 7  20030627.520         676.126          46.000    83309943.332 5
                       525.879          37.000                    20030621.200

 102634714.934 6  19530736.040       -5540.484          42.000

  76642807.141 6  19530747.500       -4137.398          43.000
 137090707.441 5  26087493.520        -485.819          40.000

 102372929.012 5  26087499.040        -362.807          39.000
 134696638.332 7  25631917.200        2024.719          46.000

 100585154.543 6  25631924.460        1511.960          45.000
 121645321.004 7  23148333.140         -17.453          48.000

  90839040.121 8  23148340.100         -13.045          51.000
 125598424.402 7  23900586.120       -2003.853          47.000

  93791031.301 7  23900593.140       -1496.401          46.000
 18 10 12  1 13 15.0000000  0 24G02G06G12G14G24G25G29G31G32S23S36R05
                                R06R13R14R15R17R23R24E18E19E21E27E30
 124149607.117 7  23624884.080        1351.282          46.000    96739954.93443
  23624879.320        1052.946          28.000    23624883.240

 125963282.879 6  23970013.220        -552.043          42.000    98153219.52742
  23970013.660        -430.177          23.000    23970013.120

 110394901.805 8  21007447.080       -2141.607          52.000    86022008.13345
  21007444.320       -1668.789          40.000    21007446.800

 116696833.488 7  22206667.280        1076.681          47.000    90932590.01644
  22206664.480         838.958          32.000    22206666.540

 122280168.074 7  23269138.420       -3270.986          47.000    95283252.81644
  23269139.660       -2548.815          31.000    23269138.140

 106699213.270 8  20304181.100         312.246          52.000    83142249.03146
  20304181.180         243.303          44.000    20304180.100

 115803518.812 7  22036673.800        3205.113          50.000    90236503.52344
  22036671.740        2497.487          35.000    22036673.560

 122579010.125 7  23326010.920        3100.729          47.000    95516110.73443
  23326007.960        2416.137          28.000    23326010.760

 114252406.035 7  21741509.740        -822.429          49.000    89027841.37945
  21741509.940        -640.859          38.000    21741509.620

 205061720.172 6  39021946.860           3.217          45.000


 200999143.504 7  38248691.840           -.153          46.000


 118608095.289 7  22188090.040       -2713.125          46.000    92250714.988 6
                     -2110.252          42.000                    22188084.680

 120743721.691 5  22627320.260        1034.001          38.000


 124991659.180 5  23406919.120       -3343.312          37.000


 106040095.270 8  19892847.520       -1348.740          54.000    82475634.172 7
                     -1049.034          50.000                    19892842.720

 105464006.051 7  19736144.360        1272.972          50.000    82027563.152 6
                       990.077          42.000                    19736140.600

 115120935.762 7  21513100.160        3987.380          47.000    89538525.762 6
                      3101.257          45.000                    21513094.440

 116660110.617 7  21808369.880       -2975.935          48.000    90735636.375 5
                     -2314.608          38.000                    21808366.060

 107102746.051 7  20028750.960         661.772          46.000    83302138.535 5
                       514.697          37.000                    20028744.660

 102717918.164 6  19546569.120       -5553.434          41.000

  76704939.406 6  19546580.620       -4147.077          42.000
 137098048.070 5  26088890.420        -493.046          40.000

 102378410.656 5  26088895.920        -368.233          39.000
 134666278.645 6  25626139.940        2023.106          45.000

 100562483.348 6  25626147.160        1510.726          45.000
 121645606.922 7  23148387.540         -20.775          49.000

  90839253.641 8  23148394.500         -15.542          51.000
 125628495.699 7  23906308.460       -2005.747          46.000

  93813487.129 7  23906315.620       -1497.814          47.000
 18 10 12  1 13 30.0000000  0 24G02G06G12G14G24G25G29G31G32S23S36R05
                                R06R13R14R15R17R23R24E18E19E21E27E30
 124129388.937 7  23621036.700        1344.607          46.000    96724200.50043
  23621031.920        1047.738          28.000    23621035.840

 125971633.426 6  23971602.260        -561.240          43.000    98159726.45742
  23971602.720        -437.306          23.000    23971602.180

 110427059.539 8  21013566.500       -2145.946          52.000    86047066.11345
  21013563.720       -1672.165          40.000    21013566.220

 116680751.160 7  22203606.920        1067.776          47.000    90920058.32844
  22203604.120         832.037          32.000    22203606.180

 122329254.965 7  23278479.360       -3273.837          48.000    95321502.36744
  23278480.600       -2551.031          32.000    23278479.060

 106694578.129 8  20303299.060         305.884          53.000    83138637.23846
  20303299.140         238.351          44.000    20303298.060

 115755483.102 8  22027532.920        3199.783          51.000    90199073.11344
  22027530.860        2493.335          35.000    22027532.660

 122532516.109 7  23317163.400        3098.613          47.000    95479881.63743
  23317160.440        2414.507          28.000    23317163.240

 114264815.254 7  21743871.140        -832.015          50.000    89037510.88745
  21743871.340        -648.327          38.000    21743871.020

 205061670.992 7  39021937.480           3.538          46.000


 200999143.688 7  38248691.760            .364          46.000


 118648862.098 7  22195716.300       -2722.258          46.000    92282422.504 6
                     -2117.328          42.000                    22195710.960

 120728305.551 5  22624431.640        1021.580          38.000


 125041823.672 4  23416313.320       -3345.226          35.000


 106060373.793 8  19896651.720       -1354.936          54.000    82491406.352 7
                     -1053.840          50.000                    19896646.940

 105444955.559 7  19732579.320        1267.243          50.000    82012746.098 6
                       985.634          42.000                    19732575.580

 115061173.598 7  21501932.180        3981.093          47.000    89492044.086 6
                      3096.397          45.000                    21501926.440

 116704822.844 7  21816728.360       -2985.605          49.000    90770412.582 5
                     -2322.154          38.000                    21816724.540

 107092925.617 7  20026914.480         647.782          46.000    83294500.422 5
                       503.854          38.000                    20026908.180

 102801313.832 5  19562438.760       -5565.868          40.000

  76767215.387 6  19562450.320       -4156.350          41.000
 137105496.758 5  26090307.880        -499.937          40.000

 102383972.992 5  26090313.360        -373.341          39.000
 134635941.367 6  25620366.940        2022.006          45.000

 100539828.898 6  25620374.180        1509.927          45.000
 121645941.750 7  23148451.280         -23.729          49.000

  90839503.672 8  23148458.240         -17.727          51.000
 125658594.785 7  23912036.060       -2007.292          46.000

  93835963.699 7  23912043.420       -1498.962          47.000
 18 10 12  1 13 45.0000000  0 24G02G06G12G14G24G25G29G31G32S23S36R05
                                R06R13R14R15R17R23R24E18E19E21E27E30
 124109275.141 6  23617209.160        1337.513          45.000    96708527.43443
  23617204.380        1042.220          29.000    23617208.300

 125980127.523 6  23973218.640        -571.019          43.000    98166345.23442
  23973219.080        -444.946          24.000    23973218.540

 110459286.816 8  21019699.160       -2150.729          52.000    86072178.27345
  21019696.380       -1675.889          39.000    21019698.860

 116664807.070 7  22200572.860        1058.379          47.000    90907634.34444
  22200570.060         824.711          32.000    22200572.120

 122378389.387 7  23287829.360       -3277.126          47.000    95359788.93044
  23287830.580       -2553.605          32.000    23287829.040

 106690043.969 8  20302436.240         298.976          52.000    83135104.12946
  20302436.320         232.967          44.000    20302435.240

 115707531.832 7  22018408.080        3193.996          50.000    90161708.48444
  22018406.020        2488.830          35.000    22018407.840

 122486058.488 7  23308322.800        3096.023          47.000    95443680.88343
  23308319.840        2412.477          28.000    23308322.660

 114277372.938 7  21746260.800        -842.080          50.000    89047296.08645
  21746261.000        -656.160          38.000    21746260.680

 205061621.441 6  39021928.040           3.268          45.000


 200999142.312 7  38248691.440            .078          46.000


 118689770.176 7  22203369.020       -2731.843          46.000    92314239.871 6
                     -2124.785          43.000                    22203363.680

 120713081.852 5  22621578.660        1008.689          38.000


 125092022.453 5  23425713.940       -3347.630          36.000    97293794.512 4
                     -2603.692          33.000                    23425710.120

 106080749.324 8  19900474.140       -1361.455          53.000    82507253.973 7
                     -1058.900          50.000                    19900469.340

 105425994.383 7  19729030.980        1261.234          50.000    81997998.512 6
                       980.972          42.000                    19729027.240

 115001509.918 7  21490782.600        3974.472          47.000    89445639.016 6
                      3091.259          44.000                    21490776.860

 116749683.957 7  21825114.700       -2995.556          49.000    90805304.586 5
                     -2329.859          37.000                    21825110.840

 107083319.277 7  20025118.040         633.393          46.000    83287028.828 5
                       492.650          37.000                    20025111.760

 102884900.781 5  19578344.780       -5578.717          39.000

  76829634.184 5  19578356.320       -4165.908          40.000
 137113053.332 5  26091745.820        -507.293          40.000

 102389615.875 5  26091751.320        -378.803          39.000
 134605626.434 7  25614598.220        2020.327          46.000

 100517191.109 6  25614605.460        1508.705          45.000
 121646325.402 7  23148524.280         -27.151          48.000

  90839790.156 8  23148531.240         -20.264          51.000
 125688721.516 7  23917768.940       -2009.304          46.000

  93858460.914 7  23917776.500       -1500.428          47.000
 18 10 12  1 14  0.0000000  0 24G02G06G12G14G24G25G29G31G32S23S36R05
                                R06R13R14R15R17R23R24E18E19E21E27E30
 124089266.156 6  23613401.580        1330.588          44.000    96692936.02043
  23613396.780        1036.821          28.000    23613400.720

 125988765.230 6  23974862.340        -580.465          43.000    98173075.91842
  23974862.780        -452.330          24.000    23974862.240

 110491583.445 8  21025845.000       -2155.230          52.000    86097344.47345
  21025842.220       -1679.406          39.000    21025844.700

 116649001.359 7  22197565.140        1049.263          47.000    90895318.22344
  22197562.340         817.617          32.000    22197564.400

 122427571.309 7  23297188.360       -3280.204          47.000    95398112.47344
  23297189.600       -2556.005          32.000    23297188.060

 106685610.859 8  20301592.640         292.367          53.000    83131649.75446
  20301592.740         227.810          44.000    20301591.660

 115659665.324 8  22009299.380        3188.432          51.000    90124409.92244
  22009297.320        2484.491          35.000    22009299.140

 122439637.562 7  23299489.200        3093.662          47.000    95407508.73043
  23299486.240        2410.645          28.000    23299489.040

 114290079.055 7  21748678.700        -851.842          50.000    89057196.95345
  21748678.900        -663.774          38.000    21748678.580

 205061572.004 7  39021918.680           3.408          46.000


 200999142.641 7  38248691.520            .080          46.000


 118730819.133 7  22211048.080       -2741.145          46.000    92346166.797 6
                     -2132.045          42.000                    22211042.740

 120698050.289 5  22618761.880         995.889          38.000


 125142254.504 5  23435120.800       -3349.695          36.000


 106101221.758 8  19904314.720       -1367.906          54.000    82523176.988 7
                     -1063.951          50.000                    19904309.940

 105407122.305 7  19725499.340        1255.320          49.000    81983320.242 6
                       976.322          42.000                    19725495.600

 114941945.121 7  21479651.480        3967.835          47.000    89399310.867 6
                      3086.058          45.000                    21479645.740

 116794693.129 7  21833528.700       -3005.391          48.000    90840311.738 5
                     -2337.588          38.000                    21833524.840

 107073927.234 7  20023361.660         619.138          47.000    83279723.914 5
                       481.502          37.000                    20023355.400

 102968678.035 6  19594287.080       -5591.273          41.000

  76892195.141 5  19594298.520       -4175.314          39.000
 137120717.836 5  26093204.340        -514.425          40.000

 102395339.367 5  26093209.840        -384.180          39.000
 134575333.980 6  25608833.780        2018.956          45.000

 100494570.137 6  25608841.020        1507.643          45.000
 121646757.996 7  23148606.620         -30.285          49.000

  90840113.203 8  23148613.580         -22.643          51.000
 125718875.980 7  23923507.080       -2011.034          46.000

  93880978.844 7  23923514.840       -1501.776          47.000
 18 10 12  1 14 15.0000000  0 24G02G06G12G14G24G25G29G31G32S23S36R05
                                R06R13R14R15R17R23R24E18E19E21E27E30
 124069362.238 6  23609613.960        1323.573          44.000    96677426.50443
  23609609.200        1031.359          29.000    23609613.120

 125997546.566 6  23976533.380        -590.079          43.000    98179918.52042
  23976533.800        -459.796          23.000    23976533.280

 110523949.191 8  21032003.980       -2159.840          52.000    86122564.53145
  21032001.220       -1682.989          39.000    21032003.700

 116633334.281 7  22194583.780        1040.039          47.000    90883110.10944
  22194581.000         810.422          32.000    22194583.060

 122476800.590 7  23306556.380       -3283.391          46.000    95436472.91844
  23306557.620       -2558.477          31.000    23306556.080

 106681278.859 8  20300768.300         285.646          52.000    83128274.16846
  20300768.380         222.587          44.000    20300767.300

 115611884.066 8  22000206.900        3182.756          51.000    90087177.77744
  22000204.840        2480.069          35.000    22000206.660

 122393253.605 7  23290662.620        3091.205          47.000    95371365.39543
  23290659.680        2408.730          28.000    23290662.480

 114302933.562 7  21751124.840        -861.731          50.000    89067213.44545
  21751125.040        -671.476          38.000    21751124.720

 205061522.926 7  39021909.340           3.411          46.000


 200999143.805 7  38248691.740            .184          46.000


 118772008.586 6  22218753.420       -2750.408          45.000    92378203.039 6
                     -2139.191          42.000                    22218748.100

 120683210.988 5  22615981.120         983.158          38.000


 125192520.277 4  23444533.980       -3351.972          35.000


 106121791.227 8  19908173.500       -1374.343          54.000    82539175.461 7
                     -1068.925          50.000                    19908168.740

 105388339.863 7  19721984.460        1249.334          49.000    81968711.668 6
                       971.708          42.000                    19721980.720

 114882479.961 7  21468538.980        3961.192          48.000    89353060.188 6
                      3080.914          45.000                    21468533.260

 116839850.355 7  21841970.360       -3015.256          48.000    90875434.043 5
                     -2345.185          39.000                    21841966.500

 107064749.887 7  20021645.460         604.849          47.000    83272585.980 5
                       470.428          38.000                    20021639.180

 103052644.629 6  19610265.420       -5603.907          41.000

  76954897.500 5  19610276.740       -4184.732          40.000
 137128490.266 5  26094683.400        -521.522          40.000

 102401143.457 5  26094688.920        -389.453          39.000
 134545064.133 7  25603073.600        2017.411          46.000

 100471966.039 6  25603080.880        1506.509          45.000
 121647239.637 7  23148698.300         -33.572          49.000

  90840472.871 8  23148705.240         -25.063          51.000
 125749058.246 7  23929250.580       -2012.874          46.000

  93903517.535 7  23929258.420       -1503.105          47.000
 18 10 12  1 14 30.0000000  0 24G02G06G12G14G24G25G29G31G32S23S36R05
                                R06R13R14R15R17R23R24E18E19E21E27E30
 124049563.484 6  23605846.380        1316.322          44.000    96661998.90643
  23605841.620        1025.717          29.000    23605845.520

 126006471.207 6  23978231.680        -599.871          43.000    98186872.79742
  23978232.100        -467.427          25.000    23978231.580

 110556383.574 8  21038176.040       -2164.640          52.000    86147838.07445
  21038173.280       -1686.730          39.000    21038175.760

 116617805.734 7  22191628.800        1030.533          47.000    90871009.93844
  22191626.020         803.013          32.000    22191628.080

 122526077.219 7  23315933.420       -3286.757          47.000    95474870.30143
  23315934.660       -2561.109          30.000    23315933.120

 106677047.613 8  20299963.120         278.654          52.000    83124977.09446
  20299963.200         217.131          44.000    20299962.120

 115564187.992 8  21991130.640        3176.817          51.000    90050012.01244
  21991128.560        2475.439          34.000    21991130.400

 122346906.586 7  23281843.080        3088.491          47.000    95335250.84043
  23281840.140        2406.623          28.000    23281842.920

 114315936.047 7  21753599.120        -871.832          50.000    89077345.24245
  21753599.340        -679.349          38.000    21753599.020

 205061473.574 7  39021899.940           3.208          46.000


 200999146.086 7  38248692.140           -.348          46.000


 118813337.688 6  22226484.900       -2760.016          45.000    92410347.867 6
                     -2146.683          43.000                    22226479.580

 120668564.340 5  22613236.180         969.952          39.000


 125242819.352 4  23453953.380       -3354.470          35.000


 106142457.496 8  19912050.440       -1381.062          54.000    82555249.211 7
                     -1074.159          50.000                    19912045.680

 105369646.957 7  19718486.320        1243.159          49.000    81954172.738 6
                       966.896          42.000                    19718482.580

 114823114.566 7  21457445.140        3954.263          48.000    89306887.117 7
                      3075.536          46.000                    21457439.400

 116885154.637 7  21850439.520       -3025.245          48.000    90910670.703 5
                     -2352.939          40.000                    21850435.640

 107055786.879 7  20019969.320         590.313          47.000    83265614.754 5
                       459.122          37.000                    20019963.040

 103136799.262 6  19626279.560       -5616.649          41.000

  77017740.246 6  19626290.780       -4194.254          41.000
 137136370.266 5  26096182.920        -528.975          40.000

 102407027.863 5  26096188.420        -394.999          39.000
 134514816.656 6  25597317.720        2015.702          45.000

 100449378.637 6  25597324.960        1505.219          45.000
 121647770.066 7  23148799.240         -37.072          49.000

  90840868.961 8  23148806.180         -27.687          51.000
 125779268.004 7  23934999.360       -2014.950          47.000

  93926076.746 7  23935007.240       -1504.669          47.000
 18 10 12  1 14 45.0000000  0 24G02G06G12G14G24G25G29G31G32S23S36R05
                                R06R13R14R15R17R23R24E18E19E21E27E30
 124029870.645 6  23602098.940        1309.264          44.000    96646653.85543
  23602094.200        1020.201          29.000    23602098.100

 126015539.629 6  23979957.340        -609.438          43.000    98193939.10242
  23979957.760        -474.879          25.000    23979957.240

 110588886.836 8  21044361.200       -2169.227          52.000    86173165.28945
  21044358.440       -1690.306          39.000    21044360.920

 116602416.477 7  22188700.340        1021.237          48.000    90859018.30544
  22188697.540         795.760          32.000    22188699.600

 122575400.824 7  23325319.380       -3289.906          46.000    95513304.28943
  23325320.640       -2563.556          30.000    23325319.100

 106672917.598 8  20299177.200         271.882          52.000    83121758.89846
  20299177.280         211.856          44.000    20299176.200

 115516578.059 8  21982070.760        3171.054          51.000    90012913.36344
  21982068.680        2470.949          34.000    21982070.520

 122300597.227 7  23273030.700        3085.947          46.000    95299165.60943
  23273027.740        2404.619          27.000    23273030.540

 114329086.855 8  21756101.660        -881.700          51.000    89087592.62545
  21756101.860        -687.037          38.000    21756101.540

 205061424.426 7  39021890.580           3.188          46.000


 200999150.480 7  38248692.840           -.238          46.000


 118854806.465 6  22234242.480       -2769.282          45.000    92442601.363 6
                     -2153.881          43.000                    22234237.180

 120654110.926 5  22610527.560         957.003          38.000


 125293152.383 4  23463379.140       -3356.719          35.000


 106163221.094 8  19915945.640       -1387.539          54.000    82571398.680 7
                     -1079.190          49.000                    19915940.900

 105351044.172 7  19715005.060        1237.099          49.000    81939703.902 6
                       962.194          42.000                    19715001.320

 114763850.145 7  21446370.160        3947.521          48.000    89260792.594 7
                      3070.286          46.000                    21446364.440

 116930606.199 7  21858936.200       -3035.087          47.000    90946021.895 5
                     -2360.629          39.000                    21858932.340

 107047038.941 7  20018333.420         575.955          47.000    83258810.805 5
                       447.970          37.000                    20018327.140

 103221141.406 6  19642329.380       -5629.087          41.000

  77080723.020 6  19642340.580       -4203.547          42.000
 137144358.293 5  26097703.020        -536.152          40.000

 102412992.945 5  26097708.500        -400.370          39.000
 134484592.082 7  25591566.180        2014.146          46.000

 100426808.336 6  25591573.420        1504.067          45.000
 121648349.809 7  23148909.600         -40.342          49.000

  90841301.887 8  23148916.480         -30.125          51.000
 125809505.746 7  23940753.480       -2016.843          47.000

  93948656.871 7  23940761.320       -1506.087          47.000
 18 10 12  1 15  0.0000000  0 24G02G06G12G14G24G25G29G31G32S23S36R05
                                R06R13R14R15R17R23R24E18E19E21E27E30
 124010283.387 6  23598371.600        1302.335          44.000    96631391.08643
  23598366.860        1014.805          29.000    23598370.740

 126024751.289 6  23981710.260        -618.778          43.000    98201117.02342
  23981710.680        -482.160          25.000    23981710.160

 110621458.512 8  21050559.380       -2173.637          52.000    86198545.81245
  21050556.640       -1693.741          39.000    21050559.100

 116587166.133 7  22185798.300        1012.131          47.000    90847134.92244
  22185795.500         788.671          32.000    22185797.560

 122624771.004 7  23334714.220       -3292.803          46.000    95551774.53944
  23334715.480       -2565.814          31.000    23334713.920

 106668888.324 8  20298410.460         265.360          52.000    83118619.21146
  20298410.540         206.774          44.000    20298409.460

 115469054.062 8  21973027.240        3165.486          51.000    89975881.68844
  21973025.160        2466.608          35.000    21973027.000

 122254325.387 7  23264225.460        3083.624          47.000    95263109.63743
  23264222.500        2402.827          28.000    23264225.300

 114342385.453 7  21758632.300        -891.379          50.000    89097955.16445
  21758632.500        -694.582          38.000    21758632.180

 205061375.121 6  39021881.220           3.301          45.000


 200999151.961 7  38248692.900            .152          46.000


 118896413.676 6  22242025.980       -2778.351          45.000    92474962.535 6
                     -2160.935          42.000                    22242020.680

 120639850.066 5  22607854.880         944.303          38.000


 125343518.672 4  23472811.140       -3358.803          35.000


 106184081.426 8  19919858.980       -1393.852          54.000    82587623.383 7
                     -1084.106          49.000                    19919854.240

 105332531.656 7  19711540.700        1231.279          49.000    81925305.289 6
                       957.667          42.000                    19711536.960

 114704686.535 7  21435314.020        3940.952          48.000    89214776.453 6
                      3065.187          45.000                    21435308.280

 116976203.797 7  21867460.180       -3044.614          47.000    90981486.699 5
                     -2368.054          40.000                    21867456.320

 107038505.613 7  20016737.660         561.834          47.000    83252173.785 5
                       436.968          37.000                    20016731.360

 103305669.578 5  19658414.560       -5641.318          40.000

  77143844.695 6  19658425.840       -4212.657          42.000
 137152453.824 5  26099243.520        -543.185          40.000

 102419038.305 5  26099249.080        -405.623          39.000
 134454390.004 7  25585818.920        2012.825          46.000

 100404254.840 7  25585826.180        1503.086          46.000
 121648978.422 7  23149029.220         -43.450          49.000

  90841771.309 8  23149036.100         -32.442          51.000
 125839771.012 7  23946512.860       -2018.520          47.000

  93971257.555 7  23946520.640       -1507.344          46.000
 18 10 12  1 15 15.0000000  0 24G02G06G12G14G24G25G29G31G32S23S36R05
                                R06R13R14R15R17R23R24E18E19E21E27E30
 123990801.973 6  23594664.400        1295.119          44.000    96616210.78143
  23594659.680        1009.187          29.000    23594663.540

 126034106.289 6  23983490.460        -628.569          42.000    98208406.62542
  23983490.880        -489.808          25.000    23983490.340

 110654098.570 8  21056770.580       -2178.409          52.000    86223979.61745
  21056767.840       -1697.464          39.000    21056770.300

 116572055.078 7  22182922.760        1002.638          48.000    90835360.07444
  22182919.960         781.263          32.000    22182922.020

 122674187.949 7  23344117.960       -3296.178          47.000    95590281.27044
  23344119.220       -2568.453          31.000    23344117.660

 106664959.871 8  20297662.900         258.432          52.000    83115558.08246
  20297662.980         201.373          44.000    20297661.900

 115421616.406 8  21964000.160        3159.502          51.000    89938917.27344
  21963998.060        2461.951          35.000    21963999.900

 122208091.324 7  23255427.400        3080.872          46.000    95227083.09843
  23255424.460        2400.684          28.000    23255427.260

 114355831.785 8  21761191.060        -901.462          51.000    89108432.81245
  21761191.260        -702.440          38.000    21761190.940

 205061325.754 7  39021871.780           3.183          46.000


 200999151.387 7  38248692.640            .006          46.000


 118938159.250 7  22249835.360       -2787.770          46.000    92507431.281 6
                     -2168.286          42.000                    22249830.060

 120625782.395 5  22605218.600         931.296          38.000


 125393918.145 5  23482249.360       -3361.196          37.000


 106205038.797 8  19923790.540       -1400.521          53.000    82603923.551 7
                     -1089.300          49.000                    19923785.800

 105314108.922 7  19708093.120        1225.036          50.000    81910976.484 6
                       952.789          42.000                    19708089.400

 114645624.605 7  21424276.880        3933.970          48.000    89168839.402 7
                      3059.737          46.000                    21424271.160

 117021947.309 7  21876011.440       -3054.543          48.000    91017064.953 5
                     -2375.740          40.000                    21876007.600

 107030186.984 7  20015182.020         547.271          46.000    83245703.727 5
                       425.645          37.000                    20015175.720

 103390382.902 5  19674534.920       -5653.860          39.000

  77207104.605 6  19674546.300       -4222.047          42.000
 137160656.875 5  26100804.540        -550.537          40.000

 102425163.949 5  26100810.080        -411.095          39.000
 134424210.562 7  25580075.960        2011.074          46.000

 100381718.246 7  25580083.220        1501.762          46.000
 121649656.031 7  23149158.180         -46.936          49.000

  90842277.309 8  23149165.060         -35.061          51.000
 125870063.875 7  23952277.520       -2020.556          47.000

  93993878.836 7  23952285.120       -1508.860          46.000
 18 10 12  1 15 30.0000000  0 24G02G06G12G14G24G25G29G31G32S23S36R05
                                R06R13R14R15R17R23R24E18E19E21E27E30
 123971426.973 6  23590977.440        1288.129          44.000    96601113.41443
  23590972.740        1003.738          29.000    23590976.600

 126043604.812 6  23985297.960        -638.113          43.000    98215808.06643
  23985298.400        -497.223          26.000    23985297.860

 110686807.215 8  21062994.840       -2182.879          52.000    86249466.87545
  21062992.080       -1700.947          40.000    21062994.560

 116557083.496 7  22180073.760         993.449          47.000    90823693.90244
  22180070.960         774.125          32.000    22180073.020

 122723651.820 7  23353530.640       -3299.161          48.000    95628824.55544
  23353531.880       -2570.776          32.000    23353530.340

 106661132.453 8  20296934.560         251.811          52.000    83112575.68046
  20296934.660         196.219          44.000    20296933.560

 115374265.660 8  21954989.600        3153.811          51.000    89902020.60244
  21954987.520        2457.516          35.000    21954989.360

 122161895.441 7  23246636.620        3078.448          46.000    95191086.30943
  23246633.680        2398.792          28.000    23246636.480

 114369425.969 7  21763777.940        -911.201          50.000    89119025.68045
  21763778.160        -710.022          38.000    21763777.840

 205061276.715 6  39021862.360           3.230          45.000


 200999151.207 7  38248692.520           -.029          46.000


 118980042.688 6  22257670.540       -2796.817          45.000    92540007.293 6
                     -2175.295          42.000                    22257665.240

 120611907.949 5  22602618.540         918.527          39.000


 125444351.180 5  23491693.840       -3363.290          36.000


 106226093.375 8  19927740.320       -1406.855          54.000    82620299.336 7
                     -1094.214          48.000                    19927735.580

 105295776.691 7  19704662.500        1219.129          49.000    81896718.090 6
                       948.228          42.000                    19704658.760

 114586664.965 7  21413258.840        3927.252          48.000    89122981.898 7
                      3054.547          46.000                    21413253.120

 117067836.500 7  21884589.940       -3064.130          48.000    91052756.547 5
                     -2383.205          40.000                    21884586.100

 107022083.570 7  20013666.660         533.061          47.000    83239401.094 5
                       414.600          38.000                    20013660.340

 103475280.516 5  19690690.360       -5665.969          40.000

  77270502.152 6  19690701.780       -4231.079          41.000
 137168967.629 5  26102386.040        -557.653          40.000

 102431370.031 5  26102391.600        -416.397          39.000
 134394054.082 7  25574337.400        2009.678          46.000

 100359198.801 7  25574344.660        1500.746          46.000
 121650382.926 7  23149296.520         -50.123          49.000

  90842820.125 8  23149303.400         -37.427          51.000
 125900384.609 7  23958047.460       -2022.306          47.000

  94016520.949 7  23958054.880       -1510.159          46.000
 18 10 12  1 15 45.0000000  0 24G02G06G12G14G24G25G29G31G32S23S36R05
                                R06R13R14R15R17R23R24E18E19E21E27E30
 123952158.336 6  23587310.740        1281.020          45.000    96586098.88343
  23587306.040         998.199          29.000    23587309.880

 126053246.559 6  23987132.720        -647.623          42.000    98223321.11743
  23987133.160        -504.627          26.000    23987132.620

 110719583.816 8  21069232.020       -2187.403          52.000    86275007.08245
  21069229.260       -1704.465          40.000    21069231.740

 116542251.406 7  22177251.300         984.127          48.000    90812136.43044
  22177248.520         766.854          32.000    22177250.580

 122773162.098 7  23362952.140       -3302.246          47.000    95667404.00844
  23362953.380       -2573.175          33.000    23362951.820

 106657405.785 8  20296225.400         245.028          52.000    83109671.78546
  20296225.500         190.934          44.000    20296224.400

 115327001.676 8  21945995.560        3147.988          51.000    89865191.52344
  21945993.460        2452.981          34.000    21945995.320

 122115737.691 7  23237853.080        3075.892          47.000    95155119.24243
  23237850.160        2396.798          28.000    23237852.940

 114383167.613 8  21766392.900        -921.081          51.000    89129733.44945
  21766393.100        -717.725          38.000    21766392.780

 205061227.551 6  39021852.960           3.238          45.000


 200999148.273 7  38248691.940            .004          46.000


 119022063.465 7  22265531.400       -2805.932          46.000    92572690.105 6
                     -2182.341          43.000                    22265526.100

 120598226.652 5  22600055.060         905.611          38.000


 125494817.020 4  23501144.480       -3365.588          35.000


 106247244.840 8  19931708.280       -1413.339          54.000    82636750.469 7
                     -1099.244          49.000                    19931703.540

 105277534.902 7  19701248.780        1213.095          49.000    81882530.027 6
                       943.530          42.000                    19701245.060

 114527807.941 7  21402260.000        3920.329          48.000    89077204.238 7
                      3049.162          46.000                    21402254.280

 117113870.402 7  21893195.500       -3073.776          48.000    91088560.699 5
                     -2390.709          39.000                    21893191.640

 107014195.234 7  20012191.500         518.685          47.000    83233265.719 5
                       403.424          38.000                    20012185.180

 103560361.133 6  19706880.700       -5678.175          41.000

  77334036.371 5  19706892.080       -4240.199          40.000
 137177385.789 5  26103987.940        -564.786          39.000

 102437656.313 5  26103993.560        -421.733          39.000
 134363920.336 7  25568603.140        2008.140          46.000

 100336696.332 7  25568610.420        1499.598          46.000
 121651158.879 7  23149444.200         -53.398          49.000

  90843399.566 8  23149451.060         -39.858          51.000
 125930732.926 7  23963822.600       -2024.195          47.000

  94039183.641 6  23963829.820       -1511.561          45.000
 18 10 12  1 16  0.0000000  0 24G02G06G12G14G24G25G29G31G32S23S36R05
                                R06R13R14R15R17R23R24E18E19E21E27E30
 123932996.176 6  23583664.280        1273.992          45.000    96571167.34843
  23583659.580         992.724          28.000    23583663.440

 126063031.383 6  23988994.720        -657.031          43.000    98230945.67243
  23988995.160        -511.962          26.000    23988994.600

 110752428.117 8  21075482.100       -2191.826          52.000    86300600.03945
  21075479.340       -1707.915          40.000    21075481.800

 116527558.762 7  22174455.400         974.886          48.000    90800687.61344
  22174452.600         759.651          32.000    22174454.660

 122822718.246 7  23372382.360       -3305.194          46.000    95706019.17644
  23372383.600       -2575.473          33.000    23372382.060

 106653779.734 8  20295535.380         238.453          52.000    83106846.28946
  20295535.480         185.813          44.000    20295534.380

 115279824.766 8  21937018.100        3142.266          51.000    89828430.30544
  21937015.980        2448.522          35.000    21937017.840

 122069618.320 7  23229076.860        3073.425          46.000    95119182.05943
  23229073.940        2394.885          28.000    23229076.720

 114397056.508 7  21769035.880        -930.801          50.000    89140555.95745
  21769036.080        -725.293          38.000    21769035.760

 205061177.891 7  39021843.460           3.382          46.000


 200999144.672 7  38248691.420            .405          46.000


 119064220.859 6  22273417.800       -2814.969          45.000    92605479.176 6
                     -2189.379          42.000                    22273412.520

 120584738.996 5  22597527.500         892.822          38.000


 125545315.906 4  23510601.320       -3367.649          34.000


 106268493.215 8  19935694.420       -1419.759          53.000    82653276.988 7
                     -1104.226          49.000                    19935689.680

 105259383.695 7  19697852.040        1207.127          49.000    81868412.418 6
                       938.890          42.000                    19697848.320

 114469054.023 7  21391280.420        3913.595          48.000    89031506.750 6
                      3043.924          45.000                    21391274.700

 117160048.734 7  21901828.060       -3083.259          48.000    91124477.195 5
                     -2398.039          39.000                    21901824.200

 107006521.625 7  20010756.500         504.465          47.000    83227297.363 5
                       392.382          37.000                    20010750.180

 103645623.656 6  19723105.660       -5690.146          41.000

  77397706.469 5  19723116.900       -4249.119          39.000
 137185911.199 5  26105610.280        -571.904          39.000

 102444022.680 5  26105615.920        -427.017          39.000
 134333809.281 7  25562873.200        2006.699          46.000

 100314210.801 7  25562880.460        1498.523          46.000
 121651983.820 7  23149601.200         -56.602          49.000

  90844015.590 8  23149608.060         -42.257          51.000
 125961108.699 7  23969602.900       -2025.895          47.000

  94061866.848 6  23969610.000       -1512.824          45.000
 18 10 12  1 16 15.0000000  0 23G02G06G12G14G24G25G29G31G32S23S36R05
                                R06R14R15R17R23R24E18E19E21E27E30
 123913940.934 6  23580038.180        1266.701          45.000    96556319.10543
  23580033.480         987.039          28.000    23580037.340

 126072959.523 6  23990883.980        -666.688          43.000    98238681.89843
  23990884.420        -519.490          27.000    23990883.860

 110785340.172 8  21081745.040       -2196.485          52.000    86326245.79345
  21081742.300       -1711.548          40.000    21081744.760

 116513006.043 7  22171686.100         965.393          48.000    90789347.83644
  22171683.320         752.253          32.000    22171685.380

 122872320.496 7  23381821.360       -3308.457          46.000    95744670.25044
  23381822.600       -2578.015          33.000    23381821.040

 106650254.535 8  20294864.560         231.577          52.000    83104099.38346
  20294864.660         180.450          44.000    20294863.560

 115232735.582 8  21928057.320        3136.259          51.000    89791737.43444
  21928055.200        2443.837          35.000    21928057.060

 122023537.828 7  23220308.020        3070.642          46.000    95083275.17643
  23220305.100        2392.708          28.000    23220307.880

 114411092.781 7  21771706.900        -940.731          50.000    89151493.29745
  21771707.100        -733.035          38.000    21771706.780

 205061128.414 7  39021834.000           3.192          46.000


 200999140.555 7  38248691.020            .006          47.000


 119106514.602 7  22281329.740       -2824.230          46.000    92638374.289 6
                     -2196.615          42.000                    22281324.440

 120571445.012 5  22595035.980         879.772          38.000


 106289838.637 8  19939698.760       -1426.317          54.000    82669878.969 7
                     -1109.346          49.000                    19939694.020

 105241323.059 7  19694472.240        1200.920          50.000    81854365.262 6
                       934.058          42.000                    19694468.500

 114410403.883 7  21380320.220        3906.460          48.000    88985889.980 7
                      3038.345          46.000                    21380314.520

 117206371.191 7  21910487.560       -3093.069          48.000    91160505.797 5
                     -2405.713          38.000                    21910483.680

 106999063.371 7  20009361.760         489.999          46.000    83221496.500 5
                       381.126          38.000                    20009355.440

 103731067.348 6  19739365.060       -5702.407          41.000

  77461511.863 5  19739376.220       -4258.306          39.000
 137194544.008 5  26107253.060        -579.254          40.000

 102450469.258 5  26107258.760        -432.574          39.000
 134303721.219 7  25557147.640        2005.003          46.000

 100291742.449 7  25557154.920        1497.239          46.000
 121652858.039 7  23149767.580         -60.038          49.000

  90844668.414 8  23149774.440         -44.838          51.000
 125991512.223 7  23975388.420       -2027.969          46.000

  94084570.766 6  23975395.440       -1514.392          45.000
 18 10 12  1 16 30.0000000  0 23G02G06G12G14G24G25G29G31G32S23S36R05
                                R06R14R15R17R23R24E18E19E21E27E30
 123894992.508 6  23576432.400        1259.700          45.000    96541554.11743
  23576427.720         981.574          29.000    23576431.560

 126083030.594 6  23992800.440        -676.146          43.000    98246529.46943
  23992800.880        -526.855          26.000    23992800.320

 110818319.480 8  21088020.800       -2200.854          51.000    86351943.94945
  21088018.060       -1714.950          39.000    21088020.520

 116498593.129 7  22168943.420         956.239          48.000    90778116.98844
  22168940.640         745.119          33.000    22168942.700

 122921968.570 7  23391269.060       -3311.383          46.000    95783357.03544
  23391270.320       -2580.294          33.000    23391268.760

 106646829.848 8  20294212.860         225.000          52.000    83101430.79746
  20294212.960         175.323          44.000    20294211.860

 115185734.074 8  21919113.220        3130.516          51.000    89755112.89144
  21919111.100        2439.366          35.000    21919112.980

 121977496.020 7  23211546.560        3068.147          46.000    95047398.46543
  23211543.640        2390.765          27.000    23211546.420

 114425275.941 8  21774405.860        -950.462          51.000    89162545.11345
  21774406.080        -740.619          38.000    21774405.740

 205061078.754 7  39021824.500           3.386          46.000


 200999139.480 7  38248691.300           -.203          46.000


 119148943.898 7  22289267.020       -2833.061          46.000    92671374.844 6
                     -2203.485          42.000                    22289261.740

 120558344.504 5  22592580.900         866.977          39.000


 106311281.020 8  19943721.300       -1432.660          54.000    82686556.379 7
                     -1114.292          49.000                    19943716.560

 105223353.250 7  19691109.420        1194.961          49.000    81840388.754 6
                       929.421          42.000                    19691105.700

 114351857.863 7  21369379.480        3899.670          48.000    88940354.191 7
                      3033.091          46.000                    21369373.780

 117252836.941 7  21919173.820       -3102.474          47.000    91196645.832 5
                     -2413.068          38.000                    21919169.960

 106991820.004 7  20008007.240         475.752          47.000    83215862.773 5
                       370.033          38.000                    20008000.900

 103816690.871 5  19755658.620       -5714.200          39.000

  77525451.527 5  19755669.780       -4267.143          40.000
 137203283.887 5  26108916.140        -586.220          39.000

 102456995.785 5  26108922.000        -437.766          40.000
 134273655.883 7  25551426.440        2003.657          46.000

 100269291.070 7  25551433.700        1496.237          46.000
 121653781.254 7  23149943.280         -63.153          49.000

  90845357.828 8  23149950.140         -47.156          51.000
 126021943.176 6  23981179.100       -2029.628          45.000

  94107295.176 6  23981186.160       -1515.641          45.000
 18 10 12  1 16 45.0000000  0 23G02G06G12G14G24G25G29G31G32S23S36R05
                                R06R14R15R17R23R24E18E19E21E27E30
 123876151.328 6  23572847.040        1252.416          45.000    96526872.69543
  23572842.340         975.906          28.000    23572846.200

 126093244.715 6  23994744.120        -685.796          43.000    98254488.53143
  23994744.560        -534.393          26.000    23994744.000

 110851366.141 8  21094309.360       -2205.410          52.000    86377694.59045
  21094306.620       -1718.497          39.000    21094309.080

 116484320.102 7  22166227.360         946.809          48.000    90766995.14544
  22166224.560         737.778          33.000    22166226.620

 122971662.156 7  23400725.440       -3314.439          46.000    95822079.28144
  23400726.700       -2582.682          32.000    23400725.140

 106643505.773 8  20293580.300         218.211          52.000    83098840.60946
  20293580.420         170.032          44.000    20293579.320

 115138820.586 8  21910185.880        3124.583          51.000    89718556.93044
  21910183.760        2434.739          35.000    21910185.620

 121931493.371 7  23202792.540        3065.461          47.000    95011552.24243
  23202789.620        2388.672          29.000    23202792.400

 114439606.039 7  21777132.800        -960.277          50.000    89173711.41845
  21777133.020        -748.269          38.000    21777132.680

 205061028.773 7  39021814.980           3.322          46.000


 200999144.914 7  38248692.680           -.311          46.000


 119191508.402 7  22297229.600       -2842.202          46.000    92704480.590 6
                     -2210.603          42.000                    22297224.320

 120545437.813 5  22590162.180         853.971          38.000


 106332820.109 8  19947762.000       -1439.232          54.000    82703309.004 7
                     -1119.405          50.000                    19947757.240

 105205474.953 7  19687763.740        1188.820          50.000    81826483.398 6
                       924.637          42.000                    19687760.020

 114293416.613 7  21358458.340        3892.521          48.000    88894899.883 6
                      3027.507          45.000                    21358452.620

 117299445.609 7  21927886.820       -3112.000          47.000    91232896.996 5
                     -2420.430          39.000                    21927882.960

 106984791.934 7  20006692.960         461.309          46.000    83210396.500 5
                       358.791          38.000                    20006686.620

 103902493.332 5  19771986.240       -5726.210          39.000

  77589524.773 6  19771997.500       -4276.092          41.000
 137212130.844 5  26110599.640        -593.415          40.000

 102463602.281 5  26110605.580        -443.110          39.000
 134243613.488 7  25545709.560        2002.019          46.000

 100246856.824 7  25545716.820        1495.015          46.000
 121654753.641 7  23150128.320         -66.519          49.000

  90846083.961 8  23150135.200         -49.670          51.000
 126052401.645 6  23986975.000       -2031.554          45.000

  94130040.129 6  23986982.120       -1517.057          45.000
 18 10 12  1 17  0.0000000  0 23G02G06G12G14G24G25G29G31G32S23S36R05
                                R06R14R15R17R23R24E18E19E21E27E30
 123857417.547 6  23569282.100        1245.374          44.000    96512274.93443
  23569277.400         970.418          28.000    23569281.260

 126103601.703 6  23996714.980        -695.235          43.000    98262558.91043
  23996715.440        -541.750          26.000    23996714.880

 110884479.789 8  21100610.680       -2209.802          51.000    86403497.42645
  21100607.960       -1721.923          39.000    21100610.400

 116470187.207 7  22163537.960         937.533          48.000    90755982.50044
  22163535.180         730.549          32.000    22163537.220

 123021400.836 7  23410190.400       -3317.426          46.000    95860836.67244
  23410191.680       -2585.009          33.000    23410190.100

 106640282.211 8  20292966.880         211.571          52.000    83096328.74246
  20292967.000         164.865          44.000    20292965.900

 115091995.375 8  21901275.340        3118.737          51.000    89682069.74644
  21901273.220        2430.183          35.000    21901275.080

 121885529.879 7  23194045.960        3062.907          46.000    94975736.53943
  23194043.060        2386.680          28.000    23194045.840

 114454082.855 8  21779887.660        -969.965          51.000    89184992.05145
  21779887.860        -755.820          38.000    21779887.540

 205060978.699 6  39021805.480           3.412          45.000


 200999148.742 7  38248693.520           -.203          46.000


 119234207.418 7  22305217.340       -2851.065          46.000    92737690.902 6
                     -2217.495          42.000                    22305212.080

 120532725.035 5  22587779.720         841.056          38.000


 106354456.012 8  19951820.840       -1445.667          54.000    82720136.922 7
                     -1124.419          49.000                    19951816.060

 105187688.238 7  19684435.200        1182.744          50.000    81812649.289 6
                       919.913          42.000                    19684431.480

 114235080.414 7  21347556.820        3885.496          49.000    88849527.305 6
                      3022.037          45.000                    21347551.120

 117346196.504 7  21936626.400       -3121.514          47.000    91269258.797 5
                     -2427.837          39.000                    21936622.540

 106977979.023 7  20005418.900         447.040          46.000    83205097.570 5
                       347.691          38.000                    20005412.560

 103988473.621 5  19788347.680       -5737.860          39.000

  77653730.809 6  19788359.080       -4284.760          42.000
 137221084.816 5  26112303.540        -600.501          39.000

 102470288.676 5  26112309.520        -448.428          40.000
 134213594.016 7  25539997.040        2000.544          46.000

 100224439.684 7  25540004.300        1493.902          46.000
 121655775.141 7  23150322.700         -69.729          49.000

  90846846.766 8  23150329.620         -52.081          51.000
 126082887.594 6  23992776.180       -2033.301          45.000

  94152805.590 6  23992783.460       -1518.380          45.000
 18 10 12  1 17 15.0000000  0 23G02G06G12G14G24G25G29G31G32S23S36R05
                                R06R14R15R17R23R24E18E19E21E27E30
 123838791.641 6  23565737.700        1238.117          45.000    96497761.24643
  23565733.000         964.768          28.000    23565736.860

 126114101.762 6  23998713.080        -704.753          43.000    98270740.77043
  23998713.540        -549.153          27.000    23998712.960

 110917660.590 8  21106924.780       -2214.281          51.000    86429352.59045
  21106922.060       -1725.405          39.000    21106924.500

 116456194.789 7  22160875.300         928.161          48.000    90745079.31244
  22160872.500         723.247          32.000    22160874.560

 123071185.281 7  23419664.060       -3320.481          47.000    95899629.73844
  23419665.340       -2587.386          33.000    23419663.760

 106637159.352 8  20292372.620         204.828          52.000    83093895.34446
  20292372.720         159.607          44.000    20292371.620

 115045258.887 8  21892381.680        3112.818          51.000    89645651.71544
  21892379.540        2425.573          35.000    21892381.420

 121839606.074 7  23185306.960        3060.285          47.000    94939951.74643
  23185304.060        2384.648          28.000    23185306.820

 114468706.469 7  21782670.440        -979.787          50.000    89196387.07045
  21782670.660        -763.471          38.000    21782670.320

 205060929.020 7  39021796.060           3.300          46.000


 200999150.719 7  38248693.860            .078          46.000


 119277040.742 7  22313230.220       -2860.007          46.000    92771005.668 6
                     -2224.430          43.000                    22313224.960

 120520206.453 5  22585433.700         828.153          38.000


 106376189.117 8  19955897.920       -1452.101          54.000    82737040.434 7
                     -1129.378          50.000                    19955893.140

 105169993.152 7  19681123.820        1176.654          50.000    81798886.449 6
                       915.208          42.000                    19681120.100

 114176850.270 7  21336675.120        3878.489          49.000    88804237.184 6
                      3016.624          45.000                    21336669.400

 117393089.508 7  21945392.560       -3130.852          48.000    91305731.113 5
                     -2435.076          40.000                    21945388.700

 106971381.602 7  20004185.160         432.678          46.000    83199966.246 5
                       336.552          38.000                    20004178.820

 104074630.930 6  19804742.860       -5749.711          41.000

  77718069.031 6  19804754.380       -4293.608          42.000
 137230145.926 5  26114027.800        -607.632          40.000

 102477055.070 5  26114033.860        -453.701          40.000
 134183597.715 7  25534288.920        1999.015          46.000

 100202039.848 7  25534296.220        1492.793          46.000
 121656846.016 7  23150526.480         -73.031          49.000

  90847646.438 8  23150533.400         -54.521          51.000
 126113401.195 6  23998582.660       -2035.159          45.000

  94175591.703 7  23998590.020       -1519.743          46.000
 18 10 12  1 17 30.0000000  0 23G02G06G12G14G24G25G29G31G32S23S36R05
                                R06R14R15R17R23R24E18E19E21E27E30
 123820273.660 6  23562213.820        1231.018          45.000    96483331.65643
  23562209.120         959.220          27.000    23562213.000

 126124744.652 6  24000738.360        -714.222          43.000    98279033.93843
  24000738.820        -556.546          27.000    24000738.240

 110950908.227 8  21113251.600       -2218.656          51.000    86455259.83245
  21113248.860       -1728.831          39.000    21113251.320

 116442342.746 7  22158239.340         918.895          48.000    90734285.51644
  22158236.560         716.010          32.000    22158238.600

 123121014.910 7  23429146.340       -3323.416          47.000    95938458.02744
  23429147.620       -2589.691          32.000    23429146.040

 106634136.969 8  20291797.480         198.224          52.000    83091540.23846
  20291797.580         154.452          44.000    20291796.480

 114998611.301 8  21883504.940        3106.967          51.000    89609302.94944
  21883502.800        2421.004          35.000    21883504.680

 121793722.148 7  23176575.520        3057.683          47.000    94904198.04343
  23176572.640        2382.605          29.000    23176575.400

 114483476.559 7  21785481.100        -989.478          50.000    89207896.22345
  21785481.320        -771.028          38.000    21785480.980

 205060879.004 7  39021786.620           3.398          46.000


 200999151.223 7  38248693.920            .089          46.000


 119320007.602 7  22321268.060       -2868.835          46.000    92804424.352 6
                     -2231.361          42.000                    22321262.820

 120507882.082 5  22583124.280         815.178          38.000


 106398019.031 8  19959993.180       -1458.486          54.000    82754019.262 7
                     -1134.438          50.000                    19959988.380

 105152389.922 7  19677829.620        1170.573          49.000    81785195.051 6
                       910.402          42.000                    19677825.880

 114118726.348 7  21325813.280        3871.428          49.000    88759029.711 7
                      3011.041          46.000                    21325807.560

 117440123.934 7  21954185.160       -3140.289          48.000    91342313.473 5
                     -2442.519          39.000                    21954181.300

 106964999.812 7  20002991.740         418.323          46.000    83195002.648 5
                       325.310          37.000                    20002985.380

 104160964.070 6  19821171.520       -5761.310          41.000

  77782538.578 6  19821183.080       -4302.300          41.000
 137239313.883 5  26115772.420        -614.703          40.000

 102483901.273 5  26115778.560        -459.093          40.000
 134153624.465 7  25528585.220        1997.552          47.000

 100179657.238 7  25528592.520        1491.636          46.000
 121657966.109 7  23150739.640         -76.250          49.000

  90848482.879 8  23150746.560         -56.982          51.000
 126143942.273 7  24004394.440       -2036.892          46.000

  94198398.340 7  24004402.000       -1521.107          46.000
 18 10 12  1 17 45.0000000  0 23G02G06G12G14G24G25G29G31G32S23S36R05
                                R06R14R15R17R23R24E18E19E21E27E30
 123801864.098 6  23558710.600        1223.623          44.000    96468986.54343
  23558705.880         953.479          27.000    23558709.760

 126135530.676 6  24002790.860        -723.820          43.000    98287438.62543
  24002791.340        -564.009          26.000    24002790.740

 110984222.504 8  21119591.080       -2223.209          52.000    86481219.00845
  21119588.360       -1732.377          39.000    21119590.820

 116428631.727 7  22155630.220         909.318          47.000    90723601.59844
  22155627.440         708.544          32.000    22155629.500

 123170889.637 7  23438637.200       -3326.531          47.000    95977321.46144
  23438638.460       -2592.110          31.000    23438636.880

 106631215.383 8  20291241.520         191.366          52.000    83089263.68446
  20291241.620         149.108          44.000    20291240.520

 114952053.301 8  21874645.240        3100.860          51.000    89573023.99245
  21874643.100        2416.243          36.000    21874644.980

 121747878.609 7  23167851.800        3054.838          47.000    94868475.81243
  23167848.900        2380.387          29.000    23167851.660

 114498393.316 7  21788319.680        -999.369          50.000    89219519.66445
  21788319.880        -778.735          38.000    21788319.540

 205060829.469 6  39021777.280           3.310          45.000


 200999149.734 7  38248693.600            .172          46.000


 119363107.891 7  22329330.880       -2877.756          46.000    92837946.801 6
                     -2238.279          43.000                    22329325.640

 120495752.516 5  22580851.120         802.187          38.000


 106419946.160 8  19964106.660       -1465.087          54.000    82771073.688 7
                     -1139.560          50.000                    19964101.860

 105134878.426 7  19674552.580        1164.350          50.000    81771575.004 6
                       905.552          42.000                    19674548.840

 114060709.629 7  21314971.460        3864.149          49.000    88713905.605 7
                      3005.414          46.000                    21314965.740

 117487299.652 7  21963004.160       -3149.742          48.000    91379005.680 5
                     -2449.843          40.000                    21963000.300

 106958833.820 7  20001838.660         403.868          46.000    83190206.887 5
                       314.071          37.000                    20001832.300

 104247472.375 5  19837633.520       -5773.110          40.000

  77847138.941 5  19837645.020       -4311.143          40.000
 137248589.008 5  26117537.420        -621.922          39.000

 102490827.508 5  26117543.600        -464.468          40.000
 134123674.656 7  25522885.980        1995.818          46.000

 100157292.129 7  25522893.260        1490.336          46.000
 121659135.793 7  23150962.240         -79.686          49.000

  90849356.348 8  23150969.140         -59.555          51.000
 126174511.195 7  24010211.620       -2038.894          46.000

  94221225.773 7  24010219.260       -1522.591          46.000
 18 10 12  1 18  0.0000000  0 23G02G06G12G14G24G25G29G31G32S23S36R05
                                R06R14R15R17R23R24E18E19E21E27E30
 123783562.391 6  23555227.880        1216.533          44.000    96454725.47743
  23555223.160         947.948          27.000    23555227.040

 126146459.023 6  24004870.460        -733.312          43.000    98295954.21542
  24004870.940        -571.405          25.000    24004870.340

 111017602.867 8  21125943.160       -2227.541          52.000    86507229.68445
  21125940.440       -1735.746          39.000    21125942.880

 116415061.043 7  22153047.800         900.021          48.000    90713027.04344
  22153045.020         701.308          33.000    22153047.080

 123220808.781 7  23448136.500       -3329.405          47.000    96016219.50844
  23448137.780       -2594.339          32.000    23448136.200

 106628393.824 8  20290704.600         184.783          52.000    83087065.06646
  20290704.700         143.986          44.000    20290703.600

 114905584.383 8  21865802.500        3094.972          51.000    89536814.45345
  21865800.360        2411.666          36.000    21865802.240

 121702074.840 7  23159135.620        3052.287          47.000    94832784.55943
  23159132.740        2378.412          29.000    23159135.480

 114513455.859 7  21791185.980       -1009.016          50.000    89231256.71545
  21791186.200        -786.244          38.000    21791185.860

 205060779.535 6  39021767.820           3.272          45.000


 200999148.070 7  38248693.340            .224          46.000


 119406340.359 7  22337418.420       -2886.554          47.000    92871572.043 6
                     -2245.090          43.000                    22337413.180

 120483816.934 5  22578614.300         789.296          38.000


 106441969.777 8  19968238.240       -1471.450          54.000    82788203.164 8
                     -1144.460          51.000                    19968233.440

 105117458.395 7  19671292.660        1158.273          50.000    81758026.082 6
                       900.891          42.000                    19671288.920

 114002799.762 7  21304149.600        3857.123          49.000    88668864.582 6
                      2999.984          45.000                    21304143.880

 117534615.199 7  21971849.320       -3159.015          48.000    91415806.656 5
                     -2457.011          39.000                    21971845.440

 106952882.934 7  20000725.820         389.554          46.000    83185578.402 5
                       302.983          38.000                    20000719.460

 104334154.094 5  19854128.480       -5784.503          39.000

  77911868.805 5  19854139.960       -4319.612          39.000
 137257970.469 5  26119322.620        -628.993          39.000

 102497833.129 5  26119328.860        -469.694          40.000
 134093747.613 7  25517191.040        1994.383          46.000

 100134944.008 7  25517198.320        1489.316          46.000
 121660354.375 7  23151194.140         -82.836          49.000

  90850266.316 8  23151201.040         -61.842          51.000
 126205107.187 7  24016033.960       -2040.615          47.000

  94244073.410 7  24016041.640       -1523.816          46.000
 18 10 12  1 18 15.0000000  0 23G02G06G12G14G24G25G29G31G32S23S36R05
                                R06R14R15R17R23R24E18E19E21E27E30
 123765369.406 6  23551765.860        1209.269          44.000    96440549.12543
  23551761.140         942.297          27.000    23551765.020

 126157530.105 6  24006977.220        -742.792          42.000    98304581.03942
  24006977.700        -578.810          25.000    24006977.100

 111051049.555 8  21132307.860       -2231.938          52.000    86533292.03545
  21132305.140       -1739.168          39.000    21132307.580

 116401631.332 7  22150492.220         890.642          48.000    90702562.33244
  22150489.440         694.011          33.000    22150491.480

 123270772.863 6  23457644.360       -3332.365          45.000    96055152.56244
  23457645.620       -2596.642          31.000    23457644.040

 106625672.738 8  20290186.780         178.126          52.000    83084944.73846
  20290186.900         138.800          44.000    20290185.800

 114859205.426 8  21856976.880        3088.987          51.000    89500675.01245
  21856974.720        2407.002          36.000    21856976.620

 121656311.551 7  23150427.160        3049.541          47.000    94797124.85943
  23150424.280        2376.272          30.000    23150427.020

 114528664.562 7  21794080.120       -1018.734          50.000    89243107.63345
  21794080.320        -793.816          38.000    21794079.980

 205060729.930 7  39021758.400           3.369          46.000


 200999147.168 7  38248693.320           -.006          46.000


 119449705.020 7  22345530.700       -2895.345          46.000    92905300.074 6
                     -2251.928          43.000                    22345525.440

 120472075.727 5  22576414.160         776.292          38.000


 106464090.406 8  19972388.020       -1477.918          54.000    82805408.082 7
                     -1149.499          50.000                    19972383.240

 105100130.371 7  19668049.940        1152.124          50.000    81744548.723 6
                       896.104          42.000                    19668046.220

 113944997.898 7  21293347.940        3849.892          49.000    88623907.590 7
                      2994.356          46.000                    21293342.220

 117582070.867 7  21980720.660       -3168.339          48.000    91452716.621 5
                     -2464.271          39.000                    21980716.780

 106947147.566 7  19999653.260         375.184          46.000    83181117.570 5
                       291.817          37.000                    19999646.920

 104421008.699 5  19870656.320       -5796.008          39.000

  77976727.777 5  19870667.780       -4328.186          39.000
 137267458.672 5  26121128.160        -636.083          39.000

 102504918.465 5  26121134.460        -474.975          40.000
 134063843.859 7  25511500.560        1992.840          46.000

 100112613.285 7  25511507.840        1488.171          47.000
 121661622.363 7  23151435.440         -86.144          49.000

  90851213.191 8  23151442.340         -64.328          51.000
 126235730.727 7  24021861.580       -2042.432          47.000

  94266941.621 7  24021869.260       -1525.186          46.000
 18 10 12  1 18 30.0000000  0 23G02G06G12G14G24G25G29G31G32S23S36R05
                                R06R14R15R17R23R24E18E19E21E27E30
 123747285.004 6  23548324.500        1201.829          44.000    96426457.39143
  23548319.780         936.489          27.000    23548323.680

 126168743.684 6  24009111.080        -752.532          43.000    98313318.88742
  24009111.560        -586.407          25.000    24009110.960

 111084562.258 8  21138685.120       -2236.514          52.000    86559405.83645
  21138682.400       -1742.741          39.000    21138684.840

 116388342.398 7  22147963.420         881.101          47.000    90692207.31644
  22147960.640         686.568          32.000    22147962.680

 123320781.352 6  23467160.660       -3335.537          45.000    96094120.16844
  23467161.940       -2599.121          31.000    23467160.340

 106623051.906 8  20289688.060         171.291          52.000    83082902.53546
  20289688.160         133.471          44.000    20289687.060

 114812916.336 8  21848168.360        3082.798          52.000    89464605.59445
  21848166.200        2402.175          36.000    21848168.100

 121610588.801 7  23141726.400        3046.686          47.000    94761496.74643
  23141723.520        2374.028          29.000    23141726.260

 114544019.031 7  21797001.980       -1028.647          49.000    89255072.16045
  21797002.200        -801.548          38.000    21797001.840

 205060680.480 6  39021749.020           3.260          45.000


 200999148.484 7  38248693.680           -.283          46.000


 119493201.020 7  22353667.520       -2904.202          47.000    92939130.305 6
                     -2258.838          42.000                    22353662.300

 120460529.195 5  22574250.340         763.179          38.000


 106486307.832 8  19976555.960       -1484.541          54.000    82822688.305 7
                     -1154.669          50.000                    19976551.180

 105082894.742 7  19664824.540        1145.829          50.000    81731143.242 6
                       891.176          42.000                    19664820.800

 113887304.285 7  21282566.500        3842.510          48.000    88579034.770 6
                      2988.591          45.000                    21282560.780

 117629665.871 7  21989618.060       -3177.782          48.000    91489734.980 5
                     -2471.646          38.000                    21989614.160

 106941627.824 6  19998621.040         360.711          45.000    83176824.461 5
                       280.504          37.000                    19998614.700

 104508034.988 5  19887216.840       -5807.604          39.000

  78041714.961 5  19887228.260       -4336.861          39.000
 137277053.367 5  26122953.960        -643.372          39.000

 102512083.336 5  26122960.280        -480.451          40.000
 134033963.258 7  25505814.480        1991.159          46.000

 100090299.852 7  25505821.800        1486.876          47.000
 121662939.582 7  23151686.100         -89.570          49.000

  90852196.824 8  23151693.000         -66.906          51.000
 126266381.609 7  24027694.360       -2044.441          47.000

  94289830.262 7  24027701.980       -1526.725          46.000
 18 10 12  1 18 45.0000000  0 23G02G06G12G14G24G25G29G31G32S23S36R05
                                R06R14R15R17R23R24E18E19E21E27E30
 123729309.637 6  23544903.880        1194.774          44.000    96412450.62943
  23544899.160         930.990          27.000    23544903.060

 126180099.891 6  24011272.100        -761.752          42.000    98322167.88342
  24011272.580        -593.569          25.000    24011271.980

 111118141.039 8  21145074.960       -2240.699          52.000    86585571.11745
  21145072.220       -1745.996          39.000    21145074.680

 116375194.898 7  22145461.540         871.889          47.000    90681962.51644
  22145458.760         679.403          32.000    22145460.800

 123370834.117 7  23476685.380       -3338.216          46.000    96133122.30544
  23476686.660       -2601.203          33.000    23476685.080

 106620531.512 8  20289208.440         164.779          52.000    83080938.59046
  20289208.560         128.402          43.000    20289207.440

 114766717.754 8  21839377.060        3076.987          52.000    89428606.70345
  21839374.900        2397.656          36.000    21839376.800

 121564907.082 7  23133033.460        3044.206          47.000    94725900.60543
  23133030.580        2372.113          30.000    23133033.320

 114559519.379 7  21799951.600       -1038.168          50.000    89267150.34445
  21799951.820        -808.958          37.000    21799951.460

 205060631.016 7  39021739.620           3.319          46.000


 200999151.789 7  38248694.320            .070          46.000


 119536828.211 7  22361828.920       -2912.757          46.000    92973062.543 6
                     -2265.457          43.000                    22361823.680

 120449177.406 5  22572123.000         750.435          38.000


 106508622.133 8  19980742.060       -1490.767          54.000    82840043.852 7
                     -1159.454          50.000                    19980737.300

 105065751.801 7  19661616.460        1139.828          50.000    81717809.840 6
                       886.546          42.000                    19661612.740

 113829719.754 7  21271805.460        3835.372          48.000    88534246.801 7
                      2983.089          46.000                    21271799.720

 117677400.098 7  21998541.460       -3186.824          47.000    91526861.590 5
                     -2478.656          38.000                    21998537.580

 106936323.750 6  19997629.160         346.516          45.000    83172699.062 5
                       269.509          37.000                    19997622.800

 104595232.102 5  19903809.920       -5818.712          40.000

  78106829.676 6  19903821.380       -4345.135          41.000
 137286754.676 5  26124800.080        -650.200          40.000

 102519327.816 5  26124806.380        -485.531          40.000
 134004106.090 7  25500132.860        1989.796          46.000

 100068003.914 7  25500140.160        1485.902          47.000
 121664306.293 7  23151946.180         -92.668          49.000

  90853217.418 8  23151953.080         -69.187          51.000
 126297060.047 7  24033532.340       -2046.061          47.000

  94312739.473 7  24033539.900       -1527.891          46.000
 18 10 12  1 19  0.0000000  0 23G02G06G12G14G24G25G29G31G32S23S36R05
                                R06R14R15R17R23R24E18E19E21E27E30
 123711443.539 6  23541504.060        1187.403          44.000    96398529.00443
  23541499.360         925.265          28.000    23541503.240

 126191598.484 6  24013460.200        -771.398          42.000    98331127.81242
  24013460.700        -601.081          24.000    24013460.080

 111151785.547 8  21151477.300       -2245.217          52.000    86611787.62145
  21151474.560       -1749.515          39.000    21151477.020

 116362188.465 7  22142986.500         862.343          48.000    90671827.62544
  22142983.720         671.962          32.000    22142985.760

 123420931.109 7  23486218.520       -3341.322          47.000    96172158.90644
  23486219.820       -2603.620          32.000    23486218.220

 106618111.309 8  20288747.880         157.912          52.000    83079052.71546
  20288748.000         123.052          44.000    20288746.900

 114720609.750 8  21830603.000        3070.789          52.000    89392678.38745
  21830600.820        2392.832          36.000    21830602.740

 121519266.402 7  23124348.320        3041.252          47.000    94690336.43043
  23124345.440        2369.816          30.000    23124348.180

 114575165.234 7  21802928.900       -1047.956          49.000    89279341.92245
  21802929.120        -816.585          37.000    21802928.780

 205060581.523 6  39021730.180           3.280          45.000


 200999152.777 7  38248694.440           -.172          46.000


 119580585.754 7  22370014.680       -2921.526          47.000    93007096.184 6
                     -2272.265          42.000                    22370009.440

 120438020.520 5  22570032.360         737.253          38.000


 106531033.340 8  19984946.360       -1497.318          54.000    82857474.785 7
                     -1164.556          50.000                    19984941.600

 105048701.203 7  19658425.680        1133.564          50.000    81704548.270 6
                       881.678          42.000                    19658421.960

 113772244.488 7  21261064.820        3827.995          48.000    88489543.820 6
                      2977.350          45.000                    21261059.080

 117725272.668 7  22007490.720       -3196.120          47.000    91564095.809 5
                     -2485.829          38.000                    22007486.840

 106931235.230 7  19996677.560         331.998          46.000    83168741.332 5
                       258.233          37.000                    19996671.220

 104682598.879 6  19920435.280       -5830.137          41.000

  78172071.102 6  19920446.840       -4353.660          42.000
 137296562.328 5  26126666.440        -657.455          40.000

 102526651.711 5  26126672.700        -490.919          40.000
 133974272.207 7  25494455.660        1988.115          46.000

 100045725.371 7  25494462.960        1484.663          47.000
 121665722.332 7  23152215.640         -96.108          49.000

  90854274.848 8  23152222.560         -71.748          51.000
 126327765.844 7  24039375.460       -2048.097          46.000

  94335669.117 6  24039383.000       -1529.407          45.000
 18 10 12  1 19 15.0000000  0 23G02G06G12G14G24G25G29G31G32S23S36R05
                                R06R14R15R17R23R24E18E19E21E27E30
 123693686.891 6  23538125.080        1180.212          44.000    96384692.66043
  23538120.360         919.651          28.000    23538124.260

 126203239.652 6  24015675.440        -780.736          42.000    98340198.86342
  24015675.940        -608.352          24.000    24015675.320

 111185495.844 8  21157892.160       -2249.476          51.000    86638055.37145
  21157889.420       -1752.834          39.000    21157891.880

 116349323.523 7  22140538.380         853.023          48.000    90661803.00444
  22140535.600         664.694          32.000    22140537.640

 123471072.188 7  23495760.060       -3344.116          47.000    96211229.87144
  23495761.360       -2605.801          33.000    23495759.760

 106615791.527 8  20288306.440         151.369          52.000    83077245.09846
  20288306.560         117.949          44.000    20288305.460

 114674592.832 8  21821846.280        3064.825          51.000    89356821.04745
  21821844.100        2388.178          36.000    21821846.020

 121473667.234 7  23115671.080        3038.621          47.000    94654804.61743
  23115668.220        2367.750          29.000    23115670.940

 114590956.703 7  21805933.920       -1057.514          50.000    89291646.94945
  21805934.140        -824.037          37.000    21805933.800

 205060532.113 7  39021720.780           3.465          46.000


 200999153.688 7  38248694.520            .119          46.000


 119624473.480 7  22378224.800       -2930.080          46.000    93041231.082 6
                     -2278.928          44.000                    22378219.560

 120427058.824 5  22567978.160         724.350          38.000


 106553541.652 8  19989168.860       -1503.706          54.000    82874981.246 7
                     -1169.548          50.000                    19989164.120

 105031743.574 7  19655252.280        1127.498          49.000    81691359.004 6
                       876.952          43.000                    19655248.560

 113714879.414 7  21250344.780        3820.740          49.000    88444926.531 7
                      2971.686          46.000                    21250339.040

 117773283.254 7  22016465.800       -3205.213          48.000    91601437.383 5
                     -2492.922          38.000                    22016461.920

 106926362.699 6  19995766.360         317.772          45.000    83164951.590 5
                       247.169          37.000                    19995760.020

 104770134.559 6  19937092.780       -5841.244          41.000

  78237438.645 6  19937104.480       -4361.970          42.000
 137306476.508 5  26128553.060        -664.392          39.000

 102534055.148 5  26128559.320        -496.117          40.000
 133944461.898 7  25488782.960        1986.649          46.000

 100023464.438 7  25488790.260        1483.535          47.000
 121667187.969 7  23152494.540         -99.265          49.000

  90855369.320 8  23152501.460         -74.115          51.000
 126358499.246 7  24045223.740       -2049.718          46.000

  94358619.375 6  24045231.260       -1530.631          45.000
 18 10 12  1 19 30.0000000  0 23G02G06G12G14G24G25G29G31G32S23S36R05
                                R06R14R15R17R23R24E18E19E21E27E30
 123676039.684 6  23534766.920        1172.710          45.000    96370941.61343
  23534762.220         913.806          30.000    23534766.100

 126215023.008 6  24017917.740        -790.391          42.000    98349380.70342
  24017918.240        -615.853          24.000    24017917.620

 111219271.332 8  21164319.420       -2253.982          51.000    86664373.93045
  21164316.680       -1756.341          39.000    21164319.140

 116336599.930 7  22138117.160         843.410          47.000    90651888.50044
  22138114.380         657.220          33.000    22138116.440

 123521256.699 7  23505309.880       -3347.226          47.000    96250334.68444
  23505311.160       -2608.221          32.000    23505309.560

 106613571.797 8  20287884.040         144.522          52.000    83075515.43846
  20287884.160         112.624          43.000    20287883.040

 114628667.043 8  21813106.880        3058.572          51.000    89321034.72345
  21813104.700        2383.308          36.000    21813106.620

 121428109.504 7  23107001.740        3035.657          48.000    94619305.07844
  23106998.880        2365.456          31.000    23107001.600

 114606893.332 7  21808966.560       -1067.390          50.000    89304065.10545
  21808966.800        -831.724          37.000    21808966.440

 205060482.535 6  39021711.280           3.233          45.000


 200999153.312 7  38248694.400           -.087          46.000


 119668490.414 7  22386459.080       -2938.853          46.000    93075466.469 6
                     -2285.705          43.000                    22386453.860

 120416292.289 5  22565960.600         711.163          38.000


 106576146.598 8  19993409.500       -1510.354          54.000    82892562.863 7
                     -1174.678          50.000                    19993404.760

 105014878.727 7  19652096.260        1121.112          50.000    81678241.891 6
                       872.026          42.000                    19652092.540

 113657624.648 7  21239645.360        3813.195          48.000    88400395.066 7
                      2965.859          46.000                    21239639.620

 117821431.164 7  22025466.560       -3214.558          48.000    91638885.773 5
                     -2500.163          39.000                    22025462.660

 106921705.738 6  19994895.480         303.192          45.000    83161329.508 5
                       235.879          38.000                    19994889.140

 104857837.801 5  19953782.140       -5852.553          39.000

  78302931.305 6  19953793.940       -4370.367          42.000
 137316496.852 5  26130459.860        -671.668          40.000

 102541537.863 5  26130466.120        -501.533          40.000
 133914674.910 7  25483114.680        1984.882          46.000

 100001220.906 7  25483122.000        1482.242          47.000
 121668702.918 7  23152782.860        -102.775          49.000

  90856500.605 8  23152789.760         -76.723          51.000
 126389259.914 7  24051077.180       -2051.736          46.000

  94381589.984 6  24051084.680       -1532.122          44.000
 18 10 12  1 19 45.0000000  0 23G02G06G12G14G24G25G29G31G32S23S36R05
                                R06R14R15R17R23R24E18E19E21E27E30
 123658502.105 6  23531429.620        1165.649          45.000    96357275.98843
  23531424.920         908.302          29.000    23531428.800

 126226948.457 6  24020187.080        -799.654          42.000    98358673.25442
  24020187.560        -623.116          22.000    24020186.960

 111253111.910 8  21170759.060       -2258.068          52.000    86690743.20345
  21170756.340       -1759.533          39.000    21170758.780

 116324017.727 7  22135722.860         834.224          47.000    90642084.19544
  22135720.080         650.051          32.000    22135722.120

 123571484.992 7  23514868.000       -3349.844          47.000    96289473.61744
  23514869.300       -2610.264          31.000    23514867.700

 106611452.078 8  20287480.680         138.123          52.000    83073863.71146
  20287480.800         107.630          43.000    20287479.680

 114582832.359 8  21804384.840        3052.743          51.000    89285319.38345
  21804382.640        2378.765          36.000    21804384.580

 121382593.383 7  23098340.300        3033.149          48.000    94583837.98844
  23098337.460        2363.493          31.000    23098340.160

 114622974.918 7  21812026.800       -1076.821          49.000    89316596.21145
  21812027.020        -839.082          37.000    21812026.680

 205060432.629 6  39021701.740           3.447          45.000


 200999154.402 7  38248694.560           -.255          46.000


 119712636.066 7  22394717.460       -2947.216          46.000    93109801.953 6
                     -2292.258          43.000                    22394712.240

 120405720.598 5  22563979.620         698.420          38.000


 106598848.285 8  19997668.280       -1516.580          54.000    82910219.746 7
                     -1179.554          49.000                    19997663.540

 104998106.727 7  19648957.600        1115.133          49.000    81665197.016 6
                       867.332          43.000                    19648953.880

 113600480.734 7  21228966.640        3805.969          49.000    88355949.789 7
                      2960.203          46.000                    21228960.900

 117869715.727 7  22034492.860       -3223.410          48.000    91676440.445 5
                     -2507.081          39.000                    22034488.940

 106917264.398 6  19994064.920         288.992          45.000    83157875.152 5
                       224.770          37.000                    19994058.580

 104945707.609 5  19970503.180       -5863.344          39.000

  78368548.352 6  19970515.080       -4378.456          41.000
 137326623.215 5  26132386.840        -678.498          39.000

 102549099.758 5  26132393.080        -506.635          39.000
 133884911.262 7  25477450.860        1983.588          46.000

  99978994.813 7  25477458.180        1481.262          47.000
 121670267.195 7  23153080.540        -105.824          49.000

  90857668.738 8  23153087.440         -79.021          51.000
 126420047.859 6  24056935.800       -2053.337          45.000

  94404580.973 6  24056943.260       -1533.327          44.000
 18 10 12  1 20  0.0000000  0 23G02G06G12G14G24G25G29G31G32S23S36R05
                                R06R14R15R17R23R24E18E19E21E27E30
 123641074.465 6  23528113.240        1158.338          45.000    96343696.03143
  23528108.540         902.614          30.000    23528112.420

 126239016.023 6  24022483.440        -809.091          42.000    98368076.55142
  24022483.940        -630.471          23.000    24022483.340

 111287017.445 8  21177211.080       -2262.368          52.000    86717163.09045
  21177208.360       -1762.877          39.000    21177210.800

 116311577.277 7  22133355.520         824.784          48.000    90632390.33644
  22133352.740         642.684          32.000    22133354.780

 123621756.687 7  23524434.400       -3352.731          46.000    96328646.36344
  23524435.700       -2612.510          31.000    23524434.080

 106609432.465 8  20287096.360         131.476          52.000    83072289.98046
  20287096.480         102.454          43.000    20287095.360

 114537089.555 8  21795680.260        3046.608          51.000    89249675.63745
  21795678.080        2373.990          36.000    21795680.000

 121337119.312 7  23089686.880        3030.365          47.000    94548403.64843
  23089684.040        2361.329          30.000    23089686.740

 114639201.453 7  21815114.600       -1086.458          49.000    89329240.25845
  21815114.840        -846.585          37.000    21815114.480

 205060382.617 6  39021692.180           3.449          45.000


 200999156.004 7  38248694.780            .062          46.000


 119756910.105 7  22402999.820       -2955.656          46.000    93144237.320 6
                     -2298.799          42.000                    22402994.620

 120395344.258 5  22562034.620         685.385          38.000


 106621646.676 8  20001945.200       -1522.948          54.000    82927951.813 7
                     -1184.475          49.000                    20001940.460

 104981427.848 7  19645836.380        1109.003          50.000    81652224.543 6
                       862.600          42.000                    19645832.660

 113543448.285 7  21218308.760        3798.606          48.000    88311591.230 7
                      2954.511          46.000                    21218303.020

 117918136.910 7  22043544.700       -3232.458          48.000    91714101.355 5
                     -2514.094          40.000                    22043540.780

 106913038.926 7  19993274.720         274.720          46.000    83154588.668 5
                       213.716          37.000                    19993268.400

 105033743.055 5  19987255.760       -5874.360          39.000

  78434289.086 5  19987267.680       -4386.644          39.000
 137336855.652 5  26134334.020        -685.507          39.000

 102556740.848 5  26134340.220        -511.857          40.000
 133855171.137 7  25471791.480        1982.041          46.000

  99956786.277 7  25471798.840        1480.123          47.000
 121671880.949 7  23153387.640        -109.061          49.000

  90858873.812 8  23153394.540         -81.419          51.000
 126450863.121 6  24062799.640       -2055.086          45.000

  94427592.359 6  24062807.000       -1534.619          44.000
 18 10 12  1 20 15.0000000  0 23G02G06G12G14G24G25G29G31G32S23S36R05
                                R06R14R15R17R23R24E18E19E21E27E30
 123623757.094 6  23524817.840        1150.600          45.000    96330201.97743
  23524813.160         896.563          30.000    23524817.020

 126251225.727 6  24024806.880        -818.851          42.000    98377590.61342
  24024807.380        -638.086          21.000    24024806.780

 111320987.816 8  21183675.420       -2267.058          52.000    86743633.50445
  21183672.700       -1766.542          39.000    21183675.140

 116299278.750 7  22131015.180         814.971          47.000    90622807.07444
  22131012.400         635.040          32.000    22131014.440

 123672071.820 6  23534009.060       -3355.935          45.000    96367852.95343
  23534010.360       -2615.023          29.000    23534008.740

 106607512.934 8  20286731.080         124.443          52.000    83070794.25046
  20286731.200          96.969          44.000    20286730.080

 114491438.941 8  21786993.240        3040.072          51.000    89214103.73845
  21786991.040        2368.885          36.000    21786992.980

 121291687.562 7  23081041.500        3027.192          48.000    94513002.27044
  23081038.660        2358.844          31.000    23081041.360

 114655572.797 7  21818229.960       -1096.467          49.000    89341997.14145
  21818230.200        -854.394          37.000    21818229.840

 205060332.414 6  39021682.600           3.083          45.000


 200999158.207 7  38248695.080           -.436          46.000


 119801311.879 7  22411306.100       -2964.529          46.000    93178772.035 6
                     -2305.788          41.000                    22411300.900

 120385163.121 5  22560126.740         671.997          38.000


 106644542.055 8  20006240.320       -1529.753          54.000    82945759.328 7
                     -1189.826          49.000                    20006235.580

 104964842.535 7  19642732.660        1102.368          50.000    81639324.852 6
                       857.365          42.000                    19642728.940

 113486527.813 7  21207671.800        3790.811          48.000    88267319.766 7
                      2948.386          46.000                    21207666.080

 117966694.172 7  22052621.960       -3241.887          47.000    91751868.102 5
                     -2521.481          40.000                    22052618.040

 106909029.098 6  19992524.860         259.929          45.000    83151469.926 5
                       202.151          38.000                    19992518.540

 105121943.172 5  20004039.700       -5885.756          40.000

  78500152.848 5  20004051.540       -4395.238          39.000
 137347194.121 5  26136301.360        -692.928          40.000

 102564461.133 5  26136307.520        -517.484          40.000
 133825454.621 7  25466136.620        1980.135          46.000

  99934595.391 7  25466143.960        1478.635          47.000
 121673544.258 7  23153704.160        -112.747          49.000

  90860115.898 8  23153711.040         -84.236          51.000
 126481705.797 7  24068668.780       -2057.290          46.000


 18 10 12  1 20 30.0000000  0 23G02G06G12G14G24G25G29G31G32S23S36R05
                                R06R14R15R17R23R24E18E19E21E27E30
 123606549.957 6  23521543.420        1143.335          45.000    96316793.84443
  23521538.760         890.911          30.000    23521542.600

 126263577.336 6  24027157.300        -828.253          42.000    98387215.25442
  24027157.800        -645.410          22.000    24027157.200

 111355022.598 8  21190152.040       -2271.247          52.000    86770154.10945
  21190149.320       -1769.798          39.000    21190151.740

 116287122.082 7  22128701.840         805.592          48.000    90613334.34844
  22128699.060         627.740          32.000    22128701.120

 123722429.613 6  23543591.820       -3358.741          45.000    96407092.80543
  23543593.140       -2617.208          28.000    23543591.520

 106605693.324 8  20286384.820         117.846          52.000    83069376.37146
  20286384.940          91.826          44.000    20286383.820

 114445880.566 8  21778323.760        3034.045          51.000    89178603.71945
  21778321.560        2364.196          36.000    21778323.500

 121246298.227 7  23072404.200        3024.442          47.000    94477633.96544
  23072401.360        2356.708          31.000    23072404.060

 114672088.656 7  21821372.840       -1105.953          49.000    89354866.64145
  21821373.080        -861.783          37.000    21821372.720

 205060282.020 7  39021673.040           3.211          46.000


 200999160.930 7  38248695.360           -.108          46.000


 119845840.863 7  22419636.180       -2972.939          46.000    93213405.652 6
                     -2312.283          43.000                    22419630.980

 120375177.504 5  22558255.200         659.072          38.000


 106667534.109 8  20010553.580       -1536.167          54.000    82963642.039 7
                     -1194.798          49.000                    20010548.820

 104948350.602 7  19639646.420        1096.201          50.000    81626497.801 6
                       852.586          42.000                    19639642.700

 113429719.789 7  21197055.860        3783.317          48.000    88223135.730 7
                      2942.589          46.000                    21197050.140

 118015386.695 7  22061724.520       -3250.806          46.000    91789740.051 5
                     -2528.394          40.000                    22061720.600

 106905235.254 7  19991815.400         245.637          46.000    83148519.164 5
                       191.036          37.000                    19991809.060

 105210306.820 6  20020854.800       -5896.440          41.000

  78566138.730 5  20020866.540       -4403.175          39.000
 137357638.391 5  26138288.860        -699.899          40.000

 102572260.426 5  26138295.020        -522.662          40.000
 133795761.641 7  25460486.240        1978.640          46.000

  99912422.059 7  25460493.560        1477.555          47.000
 121675257.004 7  23154030.100        -115.946          49.000

  90861394.895 8  23154036.960         -86.585          51.000
 126512575.672 7  24074543.160       -2059.015          46.000

  94473676.395 6  24074549.820       -1537.567          44.000
 18 10 12  1 20 45.0000000  0 23G02G06G12G14G24G25G29G31G32S23S36R05
                                R06R14R15R17R23R24E18E19E21E27E30
 123589453.102 6  23518289.980        1136.107          45.000    96303471.63343
  23518285.320         885.283          30.000    23518289.180

 126276070.637 6  24029534.700        -837.672          42.000    98396950.28142
  24029535.200        -652.731          21.000    24029534.600

 111389121.582 8  21196640.860       -2275.397          52.000    86796724.73845
  21196638.140       -1773.032          39.000    21196640.580

 116275107.238 7  22126415.500         796.254          47.000    90603972.12544
  22126412.720         620.454          32.000    22126414.760

 123772830.367 7  23553182.760       -3361.522          46.000    96446366.12543
  23553184.100       -2619.374          29.000    23553182.460

 106603973.449 8  20286057.540         111.318          52.000    83068036.20746
  20286057.660          86.742          44.000    20286056.540

 114400414.555 8  21769671.860        3027.960          51.000    89143175.65645
  21769669.680        2359.451          36.000    21769671.600

 121200951.348 7  23063774.980        3021.748          48.000    94442298.75044
  23063772.140        2354.623          31.000    23063774.820

 114688748.719 7  21824543.140       -1115.463          49.000    89367848.50445
  21824543.380        -869.189          37.000    21824543.020

 205060231.477 6  39021663.440           3.342          45.000


 200999158.434 7  38248694.680            .339          46.000


 119890496.359 7  22427989.920       -2981.303          46.000    93248137.691 6
                     -2318.786          42.000                    22427984.720

 120365387.289 5  22556420.480         646.142          38.000


 106690622.781 8  20014884.960       -1542.498          54.000    82981599.883 7
                     -1199.719          49.000                    20014880.200

 104931952.676 7  19636577.780        1090.029          50.000    81613743.855 6
                       847.805          42.000                    19636574.040

 113373024.496 7  21186460.980        3775.841          48.000    88179039.402 7
                      2936.780          46.000                    21186455.260

 118064213.953 7  22070852.240       -3259.679          46.000    91827716.797 5
                     -2535.317          39.000                    22070848.340

 106901656.758 7  19991146.180         231.339          46.000    83145735.895 5
                       179.920          37.000                    19991139.860

 105298832.836 6  20037700.800       -5907.096          41.000

  78632245.840 5  20037712.440       -4411.122          40.000
 137368188.242 5  26140296.460        -706.761          39.000

 102580138.551 5  26140302.600        -527.739          40.000
 133766092.094 7  25454840.280        1977.191          47.000

  99890266.227 7  25454847.660        1476.497          47.000
 121677019.086 7  23154365.400        -119.115          49.000

  90862710.730 8  23154372.280         -88.940          51.000
 126543472.633 7  24080422.780       -2060.690          47.000

  94496748.789 6  24080429.380       -1538.825          44.000
